ident,latitude_deg,longitude_deg,name,continent,iso_country
BGAA,68.721802,-52.784698,Aasiaat Airport,NA,GL
BGBW,61.1605,-45.425999,Narsarsuaq Airport,NA,GL
BGCO,70.743103,-22.650499,Neerlerit Inaat Airport,NA,GL
BGDH,76.76667,-18.666668,Danmarkshavn Landing Strip,NA,GL
BGGH,64.191066,-51.67914,Nuuk Airport,NA,GL
BGJN,69.243202,-51.057098,Ilulissat Airport,NA,GL
BGKK,65.573601,-37.1236,Kulusuk Airport,NA,GL
BGMI,81.601292,-16.679306,Station Nord Landing Strip,NA,GL
BGMQ,65.412498,-52.9394,Maniitsoq Airport,NA,GL
BGMV,72.2369,-23.9319,Mestersvig Airport,NA,GL
BGPT,62.014736,-49.670937,Paamiut Airport,NA,GL
BGQQ,77.488602,-69.388702,Qaanaaq Airport,NA,GL
BGSF,67.010446,-50.715294,Kangerlussuaq Airport,NA,GL
BGSS,66.951302,-53.729301,Sisimiut Airport,NA,GL
BGTL,76.531197,-68.703201,Pituffik Space Base,NA,GL
BGUK,72.790199,-56.1306,Upernavik Airport,NA,GL
BGUQ,70.7342,-52.696201,Qaarsut Airport,NA,GL
BIAE,65.90470123291016,-22.363300323486328,Arngerðareyri Airport,EU,IS
BIAL,63.53979,-18.44374,Álftaver Airport,EU,IS
BIAR,65.656573,-18.072018,Akureyri Airport,EU,IS
BIBA,63.556099,-20.137501,Bakki Airport,EU,IS
BIBD,65.641296,-23.5462,Bildudalur Airport,EU,IS
BIBF,65.516769,-13.81578,Borgarfjörður eystri Airport,EU,IS
BIBI,66.097838,-22.569713,Baeir Airport,EU,IS
BIBK,66.02189636230469,-14.824399948120115,Bakkafjörður Airport,EU,IS
BIBL,65.644997,-20.2875,Blönduós Airport,EU,IS
BIBR,65.074583,-21.802193,Búðardalur Airport,EU,IS
BIBV,64.790037,-14.043927,Breiðdalsvík Airport,EU,IS
BIDA,64.744617,-23.726521,Dagverðará Airport,EU,IS
BIDV,64.642372,-14.277297,Djúpivogur Airport,EU,IS
BIEG,65.2833023071289,-14.401399612426758,Egilsstaðir Airport,EU,IS
BIFF,64.931456,-14.047957,Fáskrúðsfjörður Airport,EU,IS
BIFL,64.1427993774414,-20.326099395751957,Flúðir Airport,EU,IS
BIFM,63.874699,-16.6411,Fagurhólsmýri Airport,EU,IS
BIFZ,63.84816,-20.716267,Forsæti Airport,EU,IS
BIGF,64.991402,-23.224701,Grundarfjörður Airport,EU,IS
BIGH,63.85329818725586,-20.262800216674805,Gunnarsholt Airport,EU,IS
BIGJ,65.9953,-21.3269,Gjögur Airport,EU,IS
BIGR,66.5458,-18.0173,Grímsey Airport,EU,IS
BIGS,65.63249969482422,-16.148300170898438,Grímsstaðir Airport,EU,IS
BIHE,65.188599,-16.1947,Herðubreiðarlindir Airport,EU,IS
BIHI,64.88610076904297,-19.49250030517578,Hveravellir Airport,EU,IS
BIHK,65.704697,-21.6964,Hólmavík Airport,EU,IS
BIHL,63.83580017089844,-20.377500534057617,Hella Airport,EU,IS
BIHN,64.295601,-15.2272,Hornafjörður Airport,EU,IS
BIHR,63.752743,-20.250893,Hvolsvöllur Airport,EU,IS
BIHS,65.75716,-23.461404,Hrafnseyri Airport,EU,IS
BIHT,66.0141804294,-23.4416913986,Holt Airport,EU,IS
BIHU,65.952301,-17.426001,Húsavík Airport,EU,IS
BIHV,65.270241,-20.848696,Krókstaðarmelar Airport,EU,IS
BIHY,65.989204,-18.394117,Hrísey Airport,EU,IS
BIHZ,64.69969940185547,-20.88360023498535,Húsafell Airport,EU,IS
BIID,66.05000305175781,-23.69610023498535,Ingjaldssanður Airport,EU,IS
BIIS,66.058098,-23.1353,Ísafjörður Airport,EU,IS
BIKA,64.77890014648438,-22.25690078735352,Kaldármelar Airport,EU,IS
BIKE,64.70500183105469,-19.410600662231445,Kerlingafjöll Airport,EU,IS
BIKF,63.985001,-22.6056,Keflavik International Airport,EU,IS
BIKJ,65.46700286865234,-21.950000762939453,Kroksfjard-Arnes Airport,EU,IS
BIKL,63.792685,-18.004684,Kirkjubæjarklaustur Airport,EU,IS
BIKP,66.310799,-16.4667,Kópasker Airport,EU,IS
BIKR,65.73169708249999,-19.5727996826,Sauðárkrókur Airport,EU,IS
BIMK,63.71419906616211,-19.879199981689453,Múlakot Airport,EU,IS
BIMM,65.4832992553711,-18.16670036315918,Melgerðismelar Airport,EU,IS
BIMS,64.18109893798828,-21.707799911499023,Tungubakkar Airport,EU,IS
BIND,64.72059631347656,-18.066699981689453,Nýjidalur Airport,EU,IS
BINF,65.131897,-13.7464,Norðfjörður Airport,EU,IS
BIOF,66.083298,-18.6667,Ólafsfjörður Airport,EU,IS
BIPA,65.555801,-23.965,Patreksfjörður Airport,EU,IS
BIRE,65.45262908935547,-22.20611572265625,Reykhólar Airport,EU,IS
BIRF,64.9114,-23.823099,Rif Airport,EU,IS
BIRG,66.406403,-15.9183,Raufarhöfn Airport,EU,IS
BIRK,64.128732,-21.93759,Reykjavík Domestic Airport,EU,IS
BIRL,65.6558,-16.9181,Reykjahlíð Airport,EU,IS
BIRS,65.91419982910156,-22.42140007019043,Reykjanes Airport,EU,IS
BISA,65.1343994140625,-19.66309928894043,Sandá Airport,EU,IS
BISF,63.929199,-21.0378,Selfoss Airport,EU,IS
BISG,64.16547,-15.91334,Steinasandur Airport,EU,IS
BISH,65.4000015258789,-21.933000564575195,Stora-Holt Airport,EU,IS
BISI,66.137847,-18.908157,Siglufjörður Airport,EU,IS
BISK,63.5172,-19.489201,Skógasandur Airport,EU,IS
BISN,64.384723,-15.371935,Svínafell Airport,EU,IS
BISP,64.6541976928711,-18.49690055847168,Sprengisandur Airport,EU,IS
BISR,64.6343994140625,-21.487499237060547,Stórikroppur Airport,EU,IS
BISS,64.06079864501953,-21.57469940185547,Sandskeið Airport,EU,IS
BIST,65.058851,-22.764616,Stykkishólmur Airport,EU,IS
BISV,64.11579895019531,-18.783300399780277,Skálavatn Airport,EU,IS
BITE,65.8703,-23.559999,Þingeyri Airport,EU,IS
BITM,63.68999862670898,-19.563100814819336,Þórsmörk Airport,EU,IS
BITN,66.218498,-15.3356,Þórshöfn Airport,EU,IS
BITO,64.354373,-18.836514,Thorisos Airport,EU,IS
BIVA,64.03309631347656,-20.651100158691406,Vatnsnes Airport,EU,IS
BIVH,65.55694580078125,-19.428056716918945,Varmahlid Airport,EU,IS
BIVI,63.42169952392578,-18.8882999420166,Vík Airport,EU,IS
BIVM,63.42430114746094,-20.27890014648437,Vestmannaeyjar Airport,EU,IS
BIVO,65.720596,-14.8506,Vopnafjörður Airport,EU,IS
BKPR,42.5728,21.035801,Priština Adem Jashari International Airport,EU,XK
BUTL,34.9697,-91.831173,Smith Field,NA,US
CBBC,52.185001,-128.156994,Bella Bella (Campbell Island) Airport,NA,CA
CRHA,53.822569,-126.172957,Streatham Reef Hueston Airfield,NA,CA
CRML,42.29560089111328,-82.53500366210938,Stoney Point (Le Cunff) Airport,NA,CA
CWJC,61.1333333333,-100.9,Ennadai Lake Airport,NA,CA
CWOB,63.325446,-64.154428,Brevoort Island Airstrip,NA,CA
CYAB,73.006101,-85.04616,Arctic Bay Airport,NA,CA
CYAC,51.7272,-91.824402,Cat Lake Airport,NA,CA
CYAD,53.5717010498,-76.19640350339999,La Grande-3 Airport,NA,CA
CYAG,48.655749,-93.44349,Fort Frances Municipal Airport,NA,CA
CYAH,53.754699707,-73.6753005981,La Grande-4 Airport,NA,CA
CYAL,50.582199,-126.916,Alert Bay Airport,NA,CA
CYAM,46.483216,-84.508467,Sault Ste Marie Airport,NA,CA
CYAQ,53.52470016479492,-88.6427993774414,Kasabonika Airport,NA,CA
CYAS,60.027199,-69.999199,Kangirsuk Airport,NA,CA
CYAT,52.927502,-82.4319,Attawapiskat Airport,NA,CA
CYAU,44.230301,-64.856102,Liverpool South Shore Regional Airport,NA,CA
CYAV,50.0564,-97.032501,Winnipeg / St. Andrews Airport,NA,CA
CYAX,50.294399,-96.010002,Lac du Bonnet Airport,NA,CA
CYAY,51.391909,-56.08321,St. Anthony Airport,NA,CA
CYAZ,49.079833,-125.775583,Tofino / Long Beach Airport,NA,CA
CYBA,51.208222,-115.540624,Banff Airport,NA,CA
CYBB,68.535711,-89.805508,Kugaaruk Airport,NA,CA
CYBC,49.1325,-68.204399,Baie-Comeau Airport,NA,CA
CYBD,52.387501,-126.596001,Bella Coola Airport,NA,CA
CYBE,59.561401,-108.481003,Uranium City Airport,NA,CA
CYBF,54.304199,-110.744003,Bonnyville Airport,NA,CA
CYBG,48.331908,-70.992909,CFB Bagotville / Saguenay-Bagotville Airport,NA,CA
CYBK,64.29889678960001,-96.077796936,Baker Lake Airport,NA,CA
CYBL,49.950802,-125.271004,Campbell River Airport,NA,CA
CYBP,50.633598,-111.926003,Brooks Regional Airport,NA,CA
CYBQ,58.706308,-98.511057,Tadoule Lake Airport,NA,CA
CYBR,49.91,-99.951897,Brandon Municipal Airport,NA,CA
CYBT,57.8894,-101.679001,Brochet Airport,NA,CA
CYBU,53.33250045776367,-104.00800323486328,Nipawin Airport,NA,CA
CYBV,52.358898,-97.018303,Berens River Airport,NA,CA
CYBW,51.1031,-114.374001,Calgary / Springbank Airport,NA,CA
CYBX,51.4436,-57.185299,Lourdes-de-Blanc-Sablon Airport,NA,CA
CYCA,53.682501,-57.042303,Cartwright Airport,NA,CA
CYCB,69.1081008911,-105.138000488,Cambridge Bay Airport,NA,CA
CYCC,45.092637,-74.567724,Cornwall Regional Airport,NA,CA
CYCD,49.05497,-123.869863,Nanaimo Airport,NA,CA
CYCE,43.285599,-81.508301,Centralia / James T. Field Memorial Aerodrome,NA,CA
CYCG,49.296398,-117.632004,Castlegar/West Kootenay Regional Airport,NA,CA
CYCH,47.007801,-65.449203,Miramichi Airport,NA,CA
CYCK,42.3064002991,-82.0819015503,Chatham Kent Airport,NA,CA
CYCL,47.990799,-66.330299,Charlo Airport,NA,CA
CYCN,49.10559844970703,-81.01360321044922,Cochrane Airport,NA,CA
CYCO,67.816408,-115.14307,Kugluktuk Airport,NA,CA
CYCP,52.11669921875,-119.28299713134766,Blue River Airport,NA,CA
CYCQ,55.687198638916016,-121.6269989013672,Chetwynd Airport,NA,CA
CYCR,54.609758,-97.762442,Cross Lake (Charlie Sinclair Memorial) Airport,NA,CA
CYCS,63.346901,-90.731102,Chesterfield Inlet Airport,NA,CA
CYCT,52.0750007629,-111.444999695,Coronation Airport,NA,CA
CYCW,49.153157,-121.939309,Chilliwack Airport,NA,CA
CYCY,70.486099,-68.516701,Clyde River Airport,NA,CA
CYCZ,50.331052,-115.873739,Fairmont Hot Springs Airport,NA,CA
CYDA,64.04309844970703,-139.1280059814453,Dawson City Airport,NA,CA
CYDB,61.371101,-139.041,Burwash Airport,NA,CA
CYDC,49.468102,-120.511002,Princeton Airport,NA,CA
CYDF,49.2108,-57.391399,Deer Lake Airport,NA,CA
CYDL,58.422199,-130.031998,Dease Lake Airport,NA,CA
CYDM,61.9706001282,-132.42300415,Ross River Airport,NA,CA
CYDN,51.1008,-100.052002,Dauphin Barker Airport,NA,CA
CYDO,48.7785,-72.375,Dolbeau-Saint-Felicien Airport,NA,CA
CYDP,56.550778,-61.682224,Nain Airport,NA,CA
CYDQ,55.741245,-120.183263,Dawson Creek Airport,NA,CA
CYEA,50.93330001831055,-110.01300048828124,Empress Airport,NA,CA
CYEE,44.6833000183,-79.9282989502,Huronia Airport,NA,CA
CYEG,53.3097,-113.580002,Edmonton International Airport,NA,CA
CYEK,61.0942,-94.070801,Arviat Airport,NA,CA
CYEL,46.351398468,-82.5614013672,Elliot Lake Municipal Airport,NA,CA
CYEM,45.842435,-81.857595,Manitoulin East Municipal Airport,NA,CA
CYEN,49.2103004456,-102.966003418,Estevan Airport,NA,CA
CYER,56.018902,-87.676102,Fort Severn Airport,NA,CA
CYES,47.487208,-68.477732,Edmundston Airport,NA,CA
CYET,53.5788993835,-116.464996338,Edson Airport,NA,CA
CYEU,79.9946975708,-85.814201355,Eureka Airport,NA,CA
CYEV,68.30419921880001,-133.483001709,Inuvik Mike Zubko Airport,NA,CA
CYEY,48.563903,-78.249702,Amos/Magny Airport,NA,CA
CYFA,52.203451,-81.695194,Fort Albany Airport,NA,CA
CYFB,63.756402,-68.555801,Iqaluit Airport,NA,CA
CYFC,45.868900299072266,-66.53720092773438,Fredericton Airport,NA,CA
CYFD,43.13140106201172,-80.34249877929688,Brantford Municipal Airport,NA,CA
CYFE,48.74610137939453,-69.09719848632812,Forestville Airport,NA,CA
CYFH,51.561901,-87.907799,Fort Hope Airport,NA,CA
CYFJ,46.409401,-74.779999,Mont-Tremblant International Airport,NA,CA
CYFO,54.678101,-101.681999,Flin Flon Airport,NA,CA
CYFR,61.1808013916,-113.690002441,Fort Resolution Airport,NA,CA
CYFS,61.76020050048828,-121.23699951171876,Fort Simpson Airport,NA,CA
CYFT,55.077335,-59.187942,Makkovik Airport,NA,CA
CYGB,49.694341,-124.518099,Texada Gillies Bay Airport,NA,CA
CYGD,43.7668991089,-81.7106018066,Goderich Airport,NA,CA
CYGE,51.299196,-116.982002,Golden Airport,NA,CA
CYGH,66.240658,-128.647757,Fort Good Hope Airport,NA,CA
CYGK,44.2253,-76.596901,Kingston Norman Rogers Airport,NA,CA
CYGL,53.625301361083984,-77.7042007446289,La Grande Rivière Airport,NA,CA
CYGM,50.62810134887695,-97.04329681396484,Gimli Industrial Park Airport,NA,CA
CYGO,54.55768,-94.490061,Gods Lake Narrows Airport,NA,CA
CYGP,48.774915,-64.481893,Michel-Pouliot Gaspé Airport,NA,CA
CYGQ,49.77830123901367,-86.93939971923828,Geraldton Greenstone Regional Airport,NA,CA
CYGR,47.425242,-61.778612,Îles-de-la-Madeleine Airport,NA,CA
CYGT,69.3647,-81.816101,Igloolik Airport,NA,CA
CYGV,50.281898,-63.611401,Havre-Saint-Pierre Airport,NA,CA
CYGW,55.28189849853516,-77.76529693603516,Kuujjuarapik Airport,NA,CA
CYGX,56.35712,-94.711504,Gillam Airport,NA,CA
CYGZ,76.425823,-82.908583,Grise Fiord Airport,NA,CA
CYHA,61.046398,-69.617798,Quaqtaq Airport,NA,CA
CYHB,52.8166999817,-102.310997009,Hudson Bay Airport,NA,CA
CYHD,49.831699,-92.744202,Dryden Regional Airport,NA,CA
CYHE,49.368865,-121.49495,Hope Airport / FVRD Regional Airpark,NA,CA
CYHF,49.71419906616211,-83.68609619140625,Hearst René Fontaine Municipal Airport,NA,CA
CYHH,51.691101,-76.135597,Nemiscau Airport,NA,CA
CYHI,70.762802,-117.806,Ulukhaktok Holman Airport,NA,CA
CYHK,68.635597,-95.849701,Gjoa Haven Airport,NA,CA
CYHM,43.1735992432,-79.93499755859999,John C. Munro Hamilton International Airport,NA,CA
CYHN,49.19309997558594,-84.75890350341797,Hornepayne Municipal Airport,NA,CA
CYHO,55.448757,-60.228124,Hopedale Airport,NA,CA
CYHP,52.1133,-94.2556,Poplar Hill Airport,NA,CA
CYHR,50.468322,-59.637823,Chevery Airport,NA,CA
CYHS,44.158298,-81.062798,Hanover / Saugeen Municipal Airport,NA,CA
CYHT,60.7892,-137.546005,Haines Junction Airport,NA,CA
CYHU,45.517502,-73.416901,Montréal / Saint-Hubert Metropolitan Airport,NA,CA
CYHY,60.8396987915,-115.782997131,Hay River / Merlyn Carter Airport,NA,CA
CYHZ,44.8807983398,-63.5085983276,Halifax / Stanfield International Airport,NA,CA
CYIB,48.773899,-91.638603,Atikokan Municipal Airport,NA,CA
CYID,44.5458450365,-65.7854247093,Digby / Annapolis Regional Airport,NA,CA
CYIF,51.2117,-58.658298,St Augustin Airport,NA,CA
CYIK,62.417301,-77.925301,Ivujivik Airport,NA,CA
CYIO,72.689494,-77.968941,Pond Inlet Airport,NA,CA
CYIV,53.857200622558594,-94.65360260009766,Island Lake Airport,NA,CA
CYJA,52.996418,-118.060233,Jasper Airport,NA,CA
CYJF,60.2358016968,-123.46900177,Fort Liard Airport,NA,CA
CYJM,54.39720153808594,-124.26300048828124,Fort St James Airport,NA,CA
CYJN,45.29439926147461,-73.28109741210938,St Jean Airport,NA,CA
CYJP,61.31940078735352,-117.6060028076172,Fort Providence Airport,NA,CA
CYJQ,52.136474,-128.056182,Denny Island Airport,NA,CA
CYJT,48.544201,-58.549999,Dymond Airport,NA,CA
CYKA,50.703038,-120.448641,Kamloops John Moose Fulton Field Regional Airport,NA,CA
CYKC,58.2360992432,-103.678001404,Collins Bay Airport,NA,CA
CYKD,68.223297,-135.00599,Aklavik/Freddie Carmichael Airport,NA,CA
CYKF,43.4608,-80.378601,Region of Waterloo International Airport,NA,CA
CYKG,61.5886,-71.929398,Kangiqsujuaq (Wakeham Bay) Airport,NA,CA
CYKJ,57.25609970092773,-105.61799621582033,Key Lake Airport,NA,CA
CYKL,54.805301666259766,-66.8052978515625,Schefferville Airport,NA,CA
CYKM,44.201401,-81.606697,Kincardine Municipal Airport,NA,CA
CYKO,60.8186,-78.148598,Akulivik Airport,NA,CA
CYKP,51.6585998535,-85.9017028809,Ogoki Post Airport,NA,CA
CYKQ,51.473301,-78.758301,Waskaganish Airport,NA,CA
CYKT,50.859547,-120.671132,Tranquille Valley Airfield,NA,CA
CYKX,48.21030044555664,-79.98139953613281,Kirkland Lake Airport,NA,CA
CYKY,51.5175018311,-109.180999756,Kindersley Airport,NA,CA
CYLA,59.2967,-69.599701,Aupaluk Airport,NA,CA
CYLB,54.7703018188,-112.031997681,Lac La Biche Airport,NA,CA
CYLC,62.848253,-69.877853,Kimmirut Airport,NA,CA
CYLD,47.81999969482422,-83.3467025756836,Chapleau Airport,NA,CA
CYLH,52.195599,-87.934196,Lansdowne House Airport,NA,CA
CYLI,50.674702,-121.893997,Lillooet Airport,NA,CA
CYLJ,54.125301361083984,-108.52300262451172,Meadow Lake Airport,NA,CA
CYLK,62.417823,-110.682793,Lutselk'e Airport,NA,CA
CYLL,53.3092,-110.072998,Lloydminster Airport,NA,CA
CYLQ,47.4096984863,-72.7889022827,La Tuque Airport,NA,CA
CYLR,56.513301849365234,-99.98529815673828,Leaf Rapids Airport,NA,CA
CYLS,44.485056,-79.554663,Barrie-Lake Simcoe Regional Airport,NA,CA
CYLT,82.517799,-62.280602,Alert Airport,NA,CA
CYLU,58.711399,-65.992798,Kangiqsualujjuaq (Georges River) Airport,NA,CA
CYLW,49.9561,-119.377998,Kelowna International Airport,NA,CA
CYMA,63.61640167236328,-135.8679962158203,Mayo Airport,NA,CA
CYME,48.85689926147461,-67.45330047607422,Matane Airport,NA,CA
CYMG,49.08390045166016,-85.86060333251953,Manitouwadge Airport,NA,CA
CYMH,52.302837,-55.847433,Mary's Harbour Airport,NA,CA
CYMJ,50.330299377441406,-105.55899810791016,Moose Jaw Air Vice Marshal C. M. McEwen Airport,NA,CA
CYML,47.59749984741211,-70.2238998413086,Charlevoix Airport,NA,CA
CYMM,56.653301239,-111.222000122,Fort McMurray Airport,NA,CA
CYMO,51.29109954833984,-80.60780334472656,Moosonee Airport,NA,CA
CYMT,49.77190017700195,-74.5280990600586,Chapais Airport,NA,CA
CYMU,56.536098,-76.518303,Umiujaq Airport,NA,CA
CYMW,46.2728,-75.990601,Maniwaki Airport,NA,CA
CYMX,45.679501,-74.038696,Montreal International (Mirabel) Airport,NA,CA
CYMY,50.717231,-93.384501,Ear Falls Airport,NA,CA
CYNA,50.190114,-61.78898,Natashquan Airport,NA,CA
CYNC,53.010601,-78.8311,Wemindji Airport,NA,CA
CYND,45.521702,-75.563599,Ottawa / Gatineau Airport,NA,CA
CYNE,53.958302,-97.8442,Norway House Airport,NA,CA
CYNH,56.035142,-121.978326,Hudson's Hope Airport,NA,CA
CYNJ,49.1008,-122.630997,Langley Airport,NA,CA
CYNL,58.27669906616211,-104.08200073242188,Points North Landing Airport,NA,CA
CYNM,49.76169967651367,-77.80280303955078,Matagami Airport,NA,CA
CYNN,59.4874992371,-97.7802963257,Nejanilini Lake Airport,NA,CA
CYNR,57.381699,-111.700996,Fort Mackay / Horizon Airport,NA,CA
CYOA,64.6988983154,-110.614997864,Ekati Airport,NA,CA
CYOC,67.570602,-139.839005,Old Crow Airport,NA,CA
CYOD,54.40499877929688,-110.27899932861328,CFB Cold Lake,NA,CA
CYOH,54.9333,-95.2789,Oxford House Airport,NA,CA
CYOJ,58.62139892578125,-117.16500091552734,High Level Airport,NA,CA
CYOO,43.922798,-78.894997,Oshawa Executive Airport,NA,CA
CYOP,58.491402,-119.407997,Rainbow Lake Airport,NA,CA
CYOS,44.5903015137,-80.8375015259,Owen Sound / Billy Bishop Regional Airport,NA,CA
CYOW,45.322498,-75.669197,Ottawa Macdonald-Cartier International Airport,NA,CA
CYPA,53.2141990662,-105.672996521,Prince Albert Glass Field,NA,CA
CYPC,69.360838,-124.07547,Paulatuk (Nora Aliqatchialuk Ruben) Airport,NA,CA
CYPD,45.6567001343,-61.3680992126,Port Hawkesbury Airport,NA,CA
CYPE,56.226898,-117.446999,Peace River Airport,NA,CA
CYPG,49.903099,-98.273817,Portage-la-Prairie / Southport Airport,NA,CA
CYPH,58.471901,-78.076897,Inukjuak Airport,NA,CA
CYPK,49.216099,-122.709999,Pitt Meadows Airport,NA,CA
CYPL,51.4463996887207,-90.21420288085938,Pickle Lake Airport,NA,CA
CYPM,51.819698,-93.973297,Pikangikum Airport,NA,CA
CYPN,49.836399,-64.288597,Port-Menier Airport,NA,CA
CYPO,54.987932,-85.442648,Peawanuck Airport,NA,CA
CYPP,47.931901,-74.608103,Parent Airport,NA,CA
CYPQ,44.23,-78.363297,Peterborough Municipal Airport,NA,CA
CYPR,54.2860984802,-130.445007324,Prince Rupert Airport,NA,CA
CYPS,50.302502,-122.737999,Pemberton Regional Airport,NA,CA
CYPT,41.778033,-82.674222,Pelee Island Airport,NA,CA
CYPU,52.11280059814453,-124.1449966430664,Puntzi Mountain Airport,NA,CA
CYPW,49.83420181274414,-124.5,Powell River Airport,NA,CA
CYPX,60.050598,-77.286903,Puvirnituq Airport,NA,CA
CYPY,58.7672004699707,-111.11699676513672,Fort Chipewyan Airport,NA,CA
CYPZ,54.3764,-125.950996,Burns Lake Airport,NA,CA
CYQA,44.975376,-79.306546,Muskoka Airport,NA,CA
CYQB,46.7911,-71.393303,Quebec Jean Lesage International Airport,NA,CA
CYQD,53.97140121459961,-101.09100341796876,The Pas Airport,NA,CA
CYQF,52.182201,-113.893997,Red Deer Regional Airport,NA,CA
CYQG,42.27560043334961,-82.95559692382812,Windsor Airport,NA,CA
CYQH,60.116839,-128.821993,Watson Lake Airport,NA,CA
CYQI,43.82690048217773,-66.08809661865234,Yarmouth Airport,NA,CA
CYQK,49.78829956054688,-94.36309814453124,Kenora Airport,NA,CA
CYQL,49.6302986145,-112.800003052,Lethbridge County Airport,NA,CA
CYQM,46.112202,-64.678596,Greater Moncton Roméo LeBlanc International Airport,NA,CA
CYQN,50.18280029296875,-86.69640350341797,Nakina Airport,NA,CA
CYQQ,49.7108,-124.887001,Comox Valley Airport / CFB Comox,NA,CA
CYQR,50.43190002441406,-104.66600036621094,Regina International Airport,NA,CA
CYQS,42.77000045776367,-81.11080169677734,St Thomas Municipal Airport,NA,CA
CYQT,48.37189865112305,-89.32389831542969,Thunder Bay Airport,NA,CA
CYQU,55.1796989441,-118.885002136,Grande Prairie Airport,NA,CA
CYQV,51.26470184326172,-102.46199798583984,Yorkton Municipal Airport,NA,CA
CYQW,52.769409,-108.243742,North Battleford Airport,NA,CA
CYQX,48.936258,-54.567719,Gander International Airport / CFB Gander,NA,CA
CYQY,46.1614,-60.047798,Sydney / J.A. Douglas McCurdy Airport,NA,CA
CYQZ,53.026100158691406,-122.51000213623048,Quesnel Airport,NA,CA
CYRA,64.116096,-117.309998,Rae Lakes Airport,NA,CA
CYRB,74.7169036865,-94.9693984985,Resolute Bay Airport,NA,CA
CYRC,48.520963,-71.05256,Chicoutimi/Saint-Honoré Aerodrome,NA,CA
CYRI,47.76440048217773,-69.58470153808594,Rivière-du-Loup Airport,NA,CA
CYRJ,48.519665,-72.265735,Roberval Airport,NA,CA
CYRL,51.06689834594727,-93.79309844970705,Red Lake Airport,NA,CA
CYRM,52.4296989441,-114.903999329,Rocky Mountain House Airport,NA,CA
CYRO,45.4603004456,-75.64610290530001,Ottawa / Rockcliffe Airport,NA,CA
CYRP,45.3191986084,-76.0222015381,Ottawa / Carp Airport,NA,CA
CYRQ,46.35279846191406,-72.67939758300781,Trois-Rivières Airport,NA,CA
CYRS,54.167198,-93.557198,Red Sucker Lake Airport,NA,CA
CYRT,62.8114013672,-92.1157989502,Rankin Inlet Airport,NA,CA
CYRV,50.962245,-118.184258,Revelstoke Airport,NA,CA
CYSA,43.415599823,-80.93440246579999,Stratford Municipal Airport,NA,CA
CYSB,46.625,-80.79889678955078,Sudbury Airport,NA,CA
CYSC,45.438599,-71.691399,Sherbrooke Airport,NA,CA
CYSE,49.7817001343,-123.162002563,Squamish Airport,NA,CA
CYSF,59.250301361083984,-105.84100341796876,Stony Rapids Airport,NA,CA
CYSG,46.096401,-70.714699,Saint-Georges Airport,NA,CA
CYSH,44.945801,-75.940598,Smiths Falls-Montague (Russ Beach) Airport,NA,CA
CYSJ,45.31610107421875,-65.89029693603516,Saint John Airport,NA,CA
CYSK,56.536891,-79.250221,Sanikiluaq Airport,NA,CA
CYSL,47.157097,-67.836242,Saint-Léonard Airport,NA,CA
CYSM,60.020302,-111.961998,Fort Smith Airport,NA,CA
CYSN,43.191598,-79.171686,Niagara District Airport,NA,CA
CYSP,48.75529861450195,-86.34439849853516,Marathon Airport,NA,CA
CYSQ,59.57833,-133.668938,Atlin Airport,NA,CA
CYST,53.845261,-94.851966,St. Theresa Point Airport,NA,CA
CYSU,46.440601,-63.833599,Summerside Airport,NA,CA
CYSW,49.834273,-114.878653,Sparwood Elk Valley Airport,NA,CA
CYSY,71.993896,-125.242996,Sachs Harbour (David Nasogaluak Jr. Saaryuaq) Airport,NA,CA
CYSZ,49.1203,-66.529198,Sainte-Anne-des-Monts Aerodrome,NA,CA
CYTA,45.86439895629883,-77.25170135498047,Pembroke Airport,NA,CA
CYTE,64.230003,-76.526703,Cape Dorset Airport,NA,CA
CYTF,48.5089,-71.641899,Alma Airport,NA,CA
CYTH,55.80110168457031,-97.86419677734376,Thompson Airport,NA,CA
CYTL,53.817799,-89.896896,Big Trout Lake Airport,NA,CA
CYTN,45.611904,-62.621102,Trenton Airport,NA,CA
CYTQ,58.667801,-69.955803,Tasiujaq Airport,NA,CA
CYTR,44.118900299072266,-77.5280990600586,CFB Trenton,NA,CA
CYTS,48.5696983337,-81.376701355,Timmins/Victor M. Power,NA,CA
CYTZ,43.627499,-79.396202,Billy Bishop Toronto City Centre Airport,NA,CA
CYUB,69.433296,-133.026001,Tuktoyaktuk / James Gruben Airport,NA,CA
CYUL,45.467837,-73.742294,Montreal / Pierre Elliott Trudeau International Airport,NA,CA
CYUT,66.521024,-86.225166,Naujaat Airport,NA,CA
CYUX,68.7761,-81.2425,Hall Beach Airport,NA,CA
CYUY,48.20610046386719,-78.83560180664062,Rouyn Noranda Airport,NA,CA
CYVB,48.071098,-65.460297,Bonaventure Airport,NA,CA
CYVC,55.1514015198,-105.262001038,La Ronge Airport,NA,CA
CYVD,49.8783,-100.917999,Virden / RJ (Bob) Andrew Field Regional Aerodrome,NA,CA
CYVG,53.357714,-110.827388,Vermilion Airport,NA,CA
CYVK,50.246163,-119.330963,Vernon Regional Airport,NA,CA
CYVL,67.02,-126.126,Tommy Kochon Airport,NA,CA
CYVM,67.54656,-64.03141,Qikiqtarjuaq Airport,NA,CA
CYVO,48.0532989502,-77.7827987671,Val-d'Or Airport,NA,CA
CYVP,58.096099853515625,-68.4269027709961,Kuujjuaq Airport,NA,CA
CYVQ,65.28160095214844,-126.7979965209961,Norman Wells Airport,NA,CA
CYVR,49.193901062,-123.183998108,Vancouver International Airport,NA,CA
CYVT,55.8418998718,-108.417999268,Buffalo Narrows Airport,NA,CA
CYVV,44.7458,-81.107201,Wiarton Airport,NA,CA
CYVZ,52.655613,-94.061208,Deer Lake Airport,NA,CA
CYWE,64.190804,-114.077002,Wekweètì Airport,NA,CA
CYWG,49.9099998474,-97.2398986816,Winnipeg / James Armstrong Richardson International Airport,NA,CA
CYWJ,65.211098,-123.435997,Déline Airport,NA,CA
CYWK,52.92190170288086,-66.8644027709961,Wabush Airport,NA,CA
CYWL,52.1831016541,-122.054000854,Williams Lake Airport,NA,CA
CYWM,54.74309921264648,-113.20500183105467,Athabasca Airport,NA,CA
CYWP,52.959393,-87.374868,Webequie Airport,NA,CA
CYWV,52.796404,-110.858445,Wainwright Airport,NA,CA
CYWY,63.20940017700195,-123.43699645996094,Wrigley Airport,NA,CA
CYXC,49.610801696777,-115.78199768066,Cranbrook/Canadian Rockies International Airport,NA,CA
CYXE,52.17079925537109,-106.6999969482422,Saskatoon John G. Diefenbaker International Airport,NA,CA
CYXH,50.018902,-110.721001,Medicine Hat Regional Airport,NA,CA
CYXJ,56.238098,-120.739998,Fort St John / North Peace Regional Airport,NA,CA
CYXK,48.477644,-68.496323,Rimouski Airport,NA,CA
CYXL,50.11389923095703,-91.9052963256836,Sioux Lookout Airport,NA,CA
CYXN,62.240002,-92.598099,Whale Cove Airport,NA,CA
CYXP,66.144878,-65.713606,Pangnirtung Airport,NA,CA
CYXQ,62.410301208496094,-140.86700439453125,Beaver Creek Airport,NA,CA
CYXR,47.6974006546,-79.8473453522,Earlton (Timiskaming Regional) Airport,NA,CA
CYXS,53.884311,-122.666554,Prince George Airport,NA,CA
CYXT,54.468498,-128.576009,Northwest Regional Airport Terrace-Kitimat,NA,CA
CYXU,43.035599,-81.1539,London Airport,NA,CA
CYXX,49.025299,-122.361,Abbotsford International Airport,NA,CA
CYXY,60.709599,-135.067001,Whitehorse / Erik Nielsen International Airport,NA,CA
CYXZ,47.96670150756836,-84.78669738769531,Wawa Airport,NA,CA
CYYB,46.363602,-79.422798,North Bay Jack Garland Airport,NA,CA
CYYC,51.118822,-114.009933,Calgary International Airport,NA,CA
CYYD,54.82469940185547,-127.18299865722656,Smithers Airport,NA,CA
CYYE,58.8363990784,-122.597000122,Fort Nelson Airport,NA,CA
CYYF,49.46310043334961,-119.60199737548828,Penticton Airport,NA,CA
CYYG,46.290000915527344,-63.12110137939453,Charlottetown Airport,NA,CA
CYYH,69.5467,-93.576698,Taloyoak Airport,NA,CA
CYYJ,48.647201,-123.427792,Victoria International Airport,NA,CA
CYYL,56.86389923095703,-101.07599639892578,Lynn Lake Airport,NA,CA
CYYM,49.6363983154,-114.09400177,Cowley Airport,NA,CA
CYYN,50.2919006348,-107.691001892,Swift Current Airport,NA,CA
CYYO,51.8098883726,-104.169788361,Wynyard / W.B. Needham Field,NA,CA
CYYQ,58.739200592041016,-94.06500244140624,Churchill Airport,NA,CA
CYYR,53.3191986084,-60.4258003235,Goose Bay Airport,NA,CA
CYYT,47.618599,-52.7519,St. John's International Airport,NA,CA
CYYU,49.411587,-82.469645,Kapuskasing Airport,NA,CA
CYYW,50.29029846191406,-88.90969848632812,Armstrong Airport,NA,CA
CYYY,48.60860061645508,-68.20809936523438,Mont Joli Airport,NA,CA
CYYZ,43.6772,-79.6306,Toronto Lester B. Pearson International Airport,NA,CA
CYZE,45.8853,-82.567802,Gore Bay Manitoulin Airport,NA,CA
CYZF,62.462799,-114.440002,Yellowknife International Airport,NA,CA
CYZG,62.179401,-75.667198,Salluit Airport,NA,CA
CYZH,55.292945,-114.777276,Slave Lake Airport,NA,CA
CYZP,53.25429916379999,-131.813995361,Sandspit Airport,NA,CA
CYZR,42.999401,-82.308899,Chris Hadfield Airport,NA,CA
CYZS,64.1932983398,-83.3593978882,Coral Harbour Airport,NA,CA
CYZT,50.68059921264648,-127.36699676513672,Port Hardy Airport,NA,CA
CYZU,54.143902,-115.787003,Whitecourt Airport,NA,CA
CYZV,50.22330093383789,-66.2656021118164,Sept-Îles Airport,NA,CA
CYZW,60.17279815673828,-132.7429962158203,Teslin Airport,NA,CA
CYZX,44.98440170288086,-64.91690063476562,CFB Greenwood,NA,CA
CYZY,55.297786,-123.133907,Mackenzie Airport,NA,CA
CZAC,56.089401,-96.089203,York Landing Airport,NA,CA
CZAM,50.682802,-119.228996,Shuswap Regional Airport,NA,CA
CZBA,43.441453,-79.850103,Burlington Executive Airpark,NA,CA
CZBB,49.0742,-123.012001,Boundary Bay Airport,NA,CA
CZBD,56.051622,-95.61882,Ilford Airport,NA,CA
CZBF,47.6297,-65.738899,Bathurst Airport,NA,CA
CZBM,45.290798,-72.741402,Bromont (Roland Désourdy) Airport,NA,CA
CZEE,56.0374984741,-96.5096969604,Kelsey Airport,NA,CA
CZEM,52.226398,-78.522499,Eastmain River Airport,NA,CA
CZFA,62.20750045776367,-133.37600708007812,Faro Airport,NA,CA
CZFD,59.3344,-107.181999,Fond-du-Lac Airport,NA,CA
CZFG,55.749199,-101.265999,Pukatawagan Airport,NA,CA
CZFM,67.406993,-134.860182,Fort Mcpherson Airport,NA,CA
CZFN,64.909496,-125.570297,Tulita Airport,NA,CA
CZGF,49.015598,-118.431,Grand Forks Airport,NA,CA
CZGI,54.839699,-94.078598,Gods River Airport,NA,CA
CZGR,52.045417,-95.46617,Little Grand Rapids Airport,NA,CA
CZHP,55.3936,-116.474998,High Prairie Airport,NA,CA
CZJG,54.51890182495117,-98.0460968017578,Jenpeg Airport,NA,CA
CZJN,52.120602,-101.236,Swan River Airport,NA,CA
CZKE,52.282501,-81.677803,Kashechewan Airport,NA,CA
CZLQ,55.31890106201172,-97.70780181884766,Thicket Portage Airport,NA,CA
CZMD,53.441399,-91.762802,Muskrat Dam Airport,NA,CA
CZML,51.7360992432,-121.333000183,South Cariboo Region / 108 Mile Airport,NA,CA
CZMN,55.58890151977539,-97.16419982910156,Pikwitonei Airport,NA,CA
CZMT,54.0275,-132.125,Masset Airport,NA,CA
CZNG,52.996526,-97.274194,Poplar River Airport,NA,CA
CZNL,49.494202,-117.301003,Nelson Airport,NA,CA
CZPB,53.890885,-92.195935,Sachigo Lake Airport,NA,CA
CZPC,49.520429,-113.997002,Pincher Creek Airport,NA,CA
CZPO,55.5280990601,-106.582000732,Pinehouse Lake Airport,NA,CA
CZRJ,52.9436,-91.312798,Round Lake (Weagamow Lake) Airport,NA,CA
CZSJ,53.06420135498047,-93.34439849853516,Sandy Lake Airport,NA,CA
CZSN,56.792801,-98.907204,South Indian Lake Airport,NA,CA
CZST,55.935410448,-129.982434511,Stewart Airport,NA,CA
CZTA,51.784568,-96.692305,Bloodvein River Airport,NA,CA
CZTM,55.86356,-92.081137,Shamattawa Airport,NA,CA
CZUC,49.428204,-91.720418,Ignace Municipal Airport,NA,CA
CZUM,53.5619010925293,-64.10639953613281,Churchill Falls Airport,NA,CA
CZVL,53.6675,-113.853996,Edmonton / Villeneuve Airport,NA,CA
CZWH,58.614279,-101.468954,Lac Brochet Airport,NA,CA
CZWL,58.106899,-103.171997,Wollaston Lake Airport,NA,CA
EBAM,50.740101,3.4849,Amougies Airfield,EU,BE
EBAR,49.661981,5.885953,Arlon-Sterpenich Ultralight Airfield,EU,BE
EBAV,50.706147,5.067739,Avernas-le-Bauduin Ultralight Airfield,EU,BE
EBAW,51.190667,4.463153,Antwerp International Airport (Deurne),EU,BE
EBBE,50.758598,4.76833,Beauvechain Air Base,EU,BE
EBBL,51.168301,5.47,Kleine Brogel Air Base,EU,BE
EBBN,50.415001,6.27639,Büllingen Airfield,EU,BE
EBBR,50.901402,4.48444,Brussels Airport,EU,BE
EBBT,51.34259,4.503451,Brasschaat Airfield,EU,BE
EBBX,49.891483,5.227405,Jehonville Air Base,EU,BE
EBBY,50.568611,4.434722,Baisy-Thy Ultralight Airfield,EU,BE
EBBZ,50.542335,4.382472,Buzet Aerodrome,EU,BE
EBCF,50.152802,4.38722,Cerfontaine Airfield,EU,BE
EBCI,50.460982,4.457158,Brussels South Charleroi Airport,EU,BE
EBCV,50.575801849365234,3.8310000896453857,Chièvres Air Base,EU,BE
EBDT,51.004032,5.064697,Schaffen Airfield,EU,BE
EBFN,51.090302,2.65278,Koksijde Air Base,EU,BE
EBFS,50.2433013916,4.64583015442,Florennes Air Base,EU,BE
EBGB,50.948546,4.39181,Grimbergen Airfield,EU,BE
EBGG,50.7556,3.86389,Overboelare Airfield,EU,BE
EBHN,51.306099,4.38722,Hoevenen Airfield,EU,BE
EBIS,50.663636,3.804681,Ath/Isieres Airfield,EU,BE
EBKH,51.180957,5.221124,Balen-Keiheuvel Airfield,EU,BE
EBKT,50.818878,3.209551,Flanders International Airport Kortrijk-Wevelgem,EU,BE
EBLE,51.12,5.307222,Leopoldsburg Airfield,EU,BE
EBLG,50.638574,5.443897,Liège Airport,EU,BE
EBMB,50.913419,4.491005,Melsbroek Air Base,EU,BE
EBMG,50.104208,4.636063,Matagne-la-Petite Ultralight Airfield,EU,BE
EBML,50.375033,4.926489,Maillen Ultralight Airfield,EU,BE
EBMO,50.851285,3.147669,Moorsele Airfield,EU,BE
EBNM,50.489705,4.769697,Namur-Suarlée Airfield,EU,BE
EBOS,51.1998,2.874673,Oostende-Brugge International Airport,EU,BE
EBSG,50.458009,3.821,Saint-Ghislain Airfield,EU,BE
EBSH,50.0359,5.40425,Saint Hubert Airfield,EU,BE
EBSL,50.949352,5.593549,Zutendaal Air Base,EU,BE
EBSM,51.268281,4.175453,Verrebroek Private Airstrip,EU,BE
EBSP,50.482006,5.913434,Spa-La Sauvenière Airfield,EU,BE
EBST,50.790772,5.19958,Sint-Truiden / Brustem Airfield,EU,BE
EBSU,50.034401,5.44081,Saint Hubert Air Base,EU,BE
EBTN,50.7817,4.95778,Goetsenhoven Airfield,EU,BE
EBTX,50.551099,5.853996,Theux (Verviers) Airfield,EU,BE
EBTY,50.531639,3.496185,Maubray Airfield,EU,BE
EBUL,51.144199,3.47556,Ursel Air Base,EU,BE
EBWE,51.394798,4.96019,Weelde Air Base,EU,BE
EBZH,50.970375,5.375331,Kiewit Airfield Hasselt,EU,BE
EBZR,51.269092,4.762428,Oostmalle Airfield,EU,BE
EBZU,51.25555,3.139858,Zuienkerke Sport Aviation Airfield,EU,BE
EBZW,51.0154,5.52647,Genk Zwartberg Airfield,EU,BE
EDAB,51.193611,14.519722,Bautzen Airfield,EU,DE
EDAC,50.981945,12.506389,Leipzig–Altenburg Airport,EU,DE
EDAD,51.8318,12.184011,Dessau Airfield,EU,DE
EDAE,52.197199,14.585696,Eisenhüttenstadt Airfield,EU,DE
EDAG,50.644169,13.126389,Großrückerswalde Airfield,EU,DE
EDAH,53.8787,14.1523,Heringsdorf Airport,EU,DE
EDAI,52.826668,12.541944,Sonderlandeplatz Segeletz,EU,DE
EDAJ,50.881668,12.135833,Gera-Leumnitz Airfield,EU,DE
EDAK,51.308056,13.555556,Großenhain Airfield,EU,DE
EDAM,51.362564,11.94113,Merseburg Airfield,EU,DE
EDAN,53.359722,11.615278,Neustadt-Glewe Airfield,EU,DE
EDAO,51.493475,10.837562,Nordhausen Airfield,EU,DE
EDAP,51.684723,14.423056,Cottbus-Neuhausen Airfield,EU,DE
EDAQ,51.552223,12.053889,Halle-Oppin Airfield,EU,DE
EDAR,50.979603,13.908445,Pirna-Pratzschwitz Airfield,EU,DE
EDAS,51.634641,13.67505,Finsterwalde-Heinrichsruh Airfield,EU,DE
EDAT,51.451111,14.199444,Nardt Airfield,EU,DE
EDAU,51.29361,13.356111,Riesa-Göhlis Airport,EU,DE
EDAV,52.826313,13.701324,Eberswalde-Finow Airfield,EU,DE
EDAW,51.577778,12.494444,Roitzschjora Airfield,EU,DE
EDAX,53.306389,12.752222,Müritz Airpark,EU,DE
EDAY,52.580555,13.916667,Strausberg Airfield,EU,DE
EDAZ,52.204631,13.159526,Schönhagen Airfield,EU,DE
EDBA,50.841873,11.069934,Arnstadt-Alkersleben Airfield,EU,DE
EDBC,51.8564,11.4203,Cochstedt Airport,EU,DE
EDBE,52.4375,12.59,Brandenburg-Mühlenfeld Airfield,EU,DE
EDBF,52.793493,12.760324,Fehrbellin Airfield,EU,DE
EDBG,52.241772,11.85619,Burg Airfield,EU,DE
EDBH,54.338253,12.710515,Stralsund-Barth Airport,EU,DE
EDBI,50.701668,12.453889,Zwickau Airfield,EU,DE
EDBJ,50.915345,11.714201,Jena-Schöngleina Airfield,EU,DE
EDBK,52.918888,12.425278,Kyritz Airfield,EU,DE
EDBL,51.245834,11.693333,Laucha Airfield,EU,DE
EDBM,52.073612,11.626389,Magdeburg City Airfield,EU,DE
EDBN,53.6022,13.306,Neubrandenburg Trollenhagen Airport,EU,DE
EDBO,51.899734,13.052809,Oehna Airfield,EU,DE
EDBP,53.615276,11.561111,Pinnow Airfield,EU,DE
EDBQ,51.672075,13.960104,Bronkow Airfield,EU,DE
EDBR,51.363335,14.95,Rothenburg/Görlitz Airfield,EU,DE
EDBS,51.198414,11.191764,Sömmerda-Dermsdorf Airfield,EU,DE
EDBT,51.380554,11.446667,Allstedt Airfield,EU,DE
EDBU,53.180019,12.184553,Pritzwalk-Sommersberg Airfield,EU,DE
EDBV,54.335835,13.043333,Stralsund Airfield,EU,DE
EDBW,52.631668,13.766944,Werneuchen Airfield,EU,DE
EDBX,51.15889,14.950278,Görlitz Airfield,EU,DE
EDBY,53.972221,13.343611,Schmoldow Airfield,EU,DE
EDBZ,51.491929,13.879366,Schwarzheide/Schipkau Airfield,EU,DE
EDCA,53.832779,13.668611,Anklam Otto Lilienthal Airfield,EU,DE
EDCB,51.745834,11.229722,Ballenstedt Airfield,EU,DE
EDCE,52.481667,14.0875,Müncheberg-Eggersdorf Airfield,EU,DE
EDCF,52.283298,13.8069,Friedersdorf Glider Field,EU,DE
EDCG,54.38347,13.325542,Rügen Airport,EU,DE
EDCH,51.043407,12.231895,Sprossen (Zeitz) Airfield,EU,DE
EDCI,51.272643,14.506266,Klix Airfield,EU,DE
EDCJ,50.747501,12.8375,Chemnitz/Jahnsdorf Airfield,EU,DE
EDCK,51.723745,11.948826,Köthen Airport,EU,DE
EDCL,52.709442,12.073333,Klietz-Scharlibbe Airfield,EU,DE
EDCM,51.296944,14.1275,Kamenz Airfield,EU,DE
EDCO,51.267776,10.634722,Obermehler-Schlotheim Airfield,EU,DE
EDCP,54.15778,13.774444,Peenemünde Airport,EU,DE
EDCQ,51.766945,11.498333,Aschersleben Airfield,EU,DE
EDCR,54.081944,11.649167,Rerik-Zweedorf Airfield,EU,DE
EDCS,52.308334,13.100556,Saarmund Airfield,EU,DE
EDCT,51.395,12.536944,Taucha Airfield,EU,DE
EDCU,53.805279,12.230556,Güstrow Airfield,EU,DE
EDCV,53.50528,13.948333,Pasewalk Airfield,EU,DE
EDCW,53.914444,11.499444,Wismar Airfield,EU,DE
EDCX,54.161667,12.248611,Purkshof Airfield,EU,DE
EDCY,51.575558,14.136944,Spremberg-Welzow Airfield,EU,DE
EDDB,52.362247,13.500672,Berlin Brandenburg Airport,EU,DE
EDDC,51.134123,13.767831,Dresden Airport,EU,DE
EDDE,50.979801,10.9581,Erfurt-Weimar Airport,EU,DE
EDDF,50.030241,8.561096,Frankfurt Airport,EU,DE
EDDG,52.134602,7.68483,Münster Osnabrück Airport,EU,DE
EDDH,53.630402,9.98823,Hamburg Helmut Schmidt Airport,EU,DE
EDDK,50.865898,7.14274,Cologne Bonn Airport,EU,DE
EDDL,51.289501,6.76678,Düsseldorf Airport,EU,DE
EDDM,48.353802,11.7861,Munich Airport,EU,DE
EDDN,49.498699,11.078056,Nuremberg Airport,EU,DE
EDDP,51.420657,12.232705,Leipzig/Halle Airport,EU,DE
EDDR,49.2145996094,7.10950994492,Saarbrücken Airport,EU,DE
EDDS,48.689899,9.22196,Stuttgart Airport,EU,DE
EDDV,52.461102,9.68508,Hannover Airport,EU,DE
EDDW,53.046786,8.78932,Bremen Airport,EU,DE
EDEB,51.129166,10.622222,Bad Langensalza Airfield,EU,DE
EDEG,50.970001,10.727778,Gotha-Ost Airfield,EU,DE
EDEH,49.345001,8.487778,Herrenteich Airfield,EU,DE
EDEL,49.908333,7.907778,Langenlonsheim Airfield,EU,DE
EDEM,51.062746,9.42201,Mosenberg Airfeld,EU,DE
EDEN,50.844055,9.707218,Bad Hersfeld Airfield,EU,DE
EDEP,49.621944,8.624444,Heppenheim Glider Field,EU,DE
EDEQ,51.213055,10.548611,Mühlhausen Airfield,EU,DE
EDER,50.498807,9.954166,Wasserkuppe Airfield,EU,DE
EDEW,49.581669,9.402222,Walldürn Airfield,EU,DE
EDFA,50.288334,8.533889,Anspach-Taunus Airfield,EU,DE
EDFB,50.337973,8.878984,Reichelsheim Airfield,EU,DE
EDFC,49.938806,9.062777,Aschaffenburg Airfield,EU,DE
EDFD,50.306062,10.227284,Bad Neustadt/Saale-Grasberg Airfield,EU,DE
EDFE,49.96,8.643043,Frankfurt-Egelsbach Airport,EU,DE
EDFG,50.196738,9.167061,Gelnhausen Airfield,EU,DE
EDFH,49.9487,7.26389,Frankfurt-Hahn Airport,EU,DE
EDFI,50.787777,8.392778,Hirzenhain Airfield,EU,DE
EDFJ,50.098517,9.883901,Lager Hammelburg Airfield,EU,DE
EDFK,50.210556,10.068889,Bad Kissingen Airfield,EU,DE
EDFL,50.544794,8.592753,Gießen-Lützellinden Airfield,EU,DE
EDFM,49.473057,8.514167,Mannheim-City Airport,EU,DE
EDFN,50.874443,8.815,Marburg-Schönstadt Airfield,EU,DE
EDFO,49.678466,8.971614,Michelstadt-Odenwald Airfield,EU,DE
EDFP,50.3622,8.71164,Ober-Mörlen Airfield,EU,DE
EDFQ,51.035268,8.681002,Allendorf-Eder Airfield,EU,DE
EDFR,49.388332,10.218056,Rothenburg ob der Tauber Airfield,EU,DE
EDFS,50.010834,10.251111,Schweinfurt South Airfield,EU,DE
EDFT,50.683666,9.4117,Lauterbach Airfield,EU,DE
EDFU,49.695042,9.18236,Mainbullau Airfield,EU,DE
EDFV,49.606945,8.368333,Worms Airfield,EU,DE
EDFW,49.81778,9.8975,Würzburg-Schenkenturm Airfield,EU,DE
EDFX,49.325279,8.528611,Hockenheim Airfield,EU,DE
EDFY,50.426945,8.011111,Limburg-Elz Airfield,EU,DE
EDFZ,49.967499,8.147222,Mainz-Finthen Airfield,EU,DE
EDGA,50.593056,7.945,Ailertchen Airfield,EU,DE
EDGB,50.676388,8.169444,Breitscheid Airfield,EU,DE
EDGE,50.991604,10.47973,Eisenach-Kindel Airport,EU,DE
EDGF,50.475278,9.443221,Fulda-Jossa Airfield,EU,DE
EDGH,49.798611,9.836667,Hettstadt Airfield,EU,DE
EDGI,49.321667,9.663056,Ingelfingen-Bühlhof Airfield,EU,DE
EDGJ,49.673611,10.071389,Ochsenfurt Airfield,EU,DE
EDGK,51.25222,8.873611,Korbach Airfield,EU,DE
EDGM,49.398888,9.123889,Mosbach-Lohrbach Airfield,EU,DE
EDGO,49.241471,9.234363,Oedheim Airfield,EU,DE
EDGP,49.841667,8.376667,Oppenheim Airfield,EU,DE
EDGQ,51.000266,8.30914,Schameder Airfield,EU,DE
EDGR,50.566376,8.869164,Gießen-Reiskirchen Airfield,EU,DE
EDGS,50.707699,8.08297,Siegerland Airport,EU,DE
EDGT,50.795277,8.458333,Bottenhorn Airfield,EU,DE
EDGU,49.515835,9.669444,Unterschüpf Airfield,EU,DE
EDGW,51.30722,9.175278,Flugplatz „Graner Berg“,EU,DE
EDGX,49.303055,8.658889,Walldorf Airfield,EU,DE
EDGZ,49.566763,8.61145,Weinheim/Bergstraße Airfield,EU,DE
EDHB,54.244446,11.024722,Grube Airfield,EU,DE
EDHC,53.017158,11.144729,Lüchow-Rehbeck Airfield,EU,DE
EDHD,51.40755,10.1453,Eichsfeld Airfield,EU,DE
EDHE,53.645477,9.703503,Uetersen-Heist Airfield,EU,DE
EDHF,53.992009,9.576409,Itzehoe Hungriger Wolf Airfield,EU,DE
EDHG,53.24832,10.458705,Lüneburg Airfield,EU,DE
EDHI,53.5352783203125,9.835556030273438,Hamburg-Finkenwerder Airport,EU,DE
EDHK,54.37957,10.145266,Kiel-Holtenau Airport,EU,DE
EDHL,53.805401,10.7192,Lübeck Blankensee Airport,EU,DE
EDHM,53.915001,10.035556,Hartenholm Airfield,EU,DE
EDHN,54.079445,9.941389,Neumünster Airport,EU,DE
EDHO,53.70031,9.742119,Ahrenlohe Airfield,EU,DE
EDHS,53.561111,9.499167,Stade Airfield,EU,DE
EDHU,53.2075,9.573333,Lauenbrück Airfield,EU,DE
EDHW,53.969444,10.221667,Wahlstedt Airfield,EU,DE
EDJA,47.9888000488,10.2395000458,Memmingen Allgau Airport,EU,DE
EDJG,47.852757,12.55037,Grabenstätt Airfield,EU,DE
EDKA,50.823055,6.186389,Aachen-Merzbrück Airport,EU,DE
EDKB,50.76889,7.163333,Bonn-Hangelar Airfield,EU,DE
EDKD,51.312459,7.704134,Altena-Hegenscheid Airfield,EU,DE
EDKF,51.05209,7.70683,Bergneustadt-Auf dem Dümpel Airfield,EU,DE
EDKH,50.928612,7.899167,Hünsborn Airfield,EU,DE
EDKI,50.817223,7.830556,Betzdorf-Kirchen Airfield,EU,DE
EDKL,51.015278,7.005556,Leverkusen Airfield,EU,DE
EDKM,51.302776,8.239167,Meschede-Schüren Airfield,EU,DE
EDKN,51.124168,7.373611,Wipperfürth-Neye Airfield,EU,DE
EDKO,51.402833,8.643043,Brilon-Hochsauerland Airfield,EU,DE
EDKP,51.191878,7.79098,Plettenberg-Hüinghausen Airfield,EU,DE
EDKR,51.1615,8.260667,Schmallenberg-Rennefeld Airfield,EU,DE
EDKU,51.145832,7.936667,Attendorn-Finnentrop Airfield,EU,DE
EDKV,50.40611,6.530256,Dahlemer Binz Airfield,EU,DE
EDKW,51.297222,7.818333,Werdohl-Küntrop Airfield,EU,DE
EDKZ,51.099399,7.596896,Meinerzhagen Airfield,EU,DE
EDLA,51.483891,7.898333,Arnsberg-Menden Airfield,EU,DE
EDLB,51.779999,7.288056,Borkenberge Airfield,EU,DE
EDLC,51.529167,6.536111,Kamp-Lintfort Airfield,EU,DE
EDLD,51.616018,6.861262,Dinslaken-Schwarze Heide Airfield,EU,DE
EDLE,51.402302,6.93733,Essen-Mülheim Airport,EU,DE
EDLF,51.333889,6.359444,Grefrath-Niershorst Airfield,EU,DE
EDLG,51.690834,6.104167,Goch-Asperden Airfield,EU,DE
EDLH,51.68972,7.816111,Hamm-Lippewiesen Airfield,EU,DE
EDLI,51.964722,8.544444,Bielefeld Airport,EU,DE
EDLJ,51.940834,8.904722,Detmold Airfield,EU,DE
EDLK,51.384998,6.587778,Krefeld-Egelsberg Airfield,EU,DE
EDLM,51.647202,7.16333,Marl-Loemühle Airfield,EU,DE
EDLN,51.230278,6.504444,Mönchengladbach Airport,EU,DE
EDLO,51.93222,8.661667,Oerlinghausen Airfield,EU,DE
EDLP,51.614101,8.61632,Paderborn Lippstadt Airport,EU,DE
EDLQ,51.931667,8.081667,Beelen Airfield,EU,DE
EDLR,51.688332,8.775278,Paderborn-Haxterberg Airfield,EU,DE
EDLS,51.995834,6.840556,Stadtlohn-Vreden Airfield,EU,DE
EDLT,51.944745,7.773621,Münster-Telgte Airfield,EU,DE
EDLU,51.830601,8.17472,Oelde Bergeler Airfield,EU,DE
EDLV,51.6024017334,6.14216995239,Weeze Airport,EU,DE
EDLW,51.518299,7.61224,Dortmund Airport,EU,DE
EDLX,51.662777,6.595833,Wesel-Römerwardt Airfield,EU,DE
EDLY,51.853333,6.814722,Borken-Hoxfeld Airfield,EU,DE
EDLZ,51.578056,8.214722,Soest-Bad Sassendorf Airfield,EU,DE
EDMA,48.425278,10.931667,Augsburg Airport,EU,DE
EDMB,48.112359,9.764013,Biberach an der Riß Airfield,EU,DE
EDMC,48.419724,9.798333,Blaubeuren Airfield,EU,DE
EDMD,48.228675,11.422134,Dachau-Gröbenried Airfield,EU,DE
EDME,48.396111,12.723611,Eggenfelden Airfield,EU,DE
EDMF,48.518055,13.345833,Fürstenzell Airfield,EU,DE
EDMG,48.486668,10.283333,Günzburg-Donauried Airfield,EU,DE
EDMH,49.112226,10.782165,Gunzenhausen-Reutberg Airfield,EU,DE
EDMI,48.235,10.1377,Illertissen Airfield,EU,DE
EDMJ,48.174366,11.125363,Jesenwang Airfield,EU,DE
EDMK,47.691944,10.338056,Kempten-Durach Airfield,EU,DE
EDML,48.511665,12.033333,Landshut Airfield,EU,DE
EDMN,48.106945,10.525,Mindelheim-Mattsies Airfield,EU,DE
EDMO,48.081402,11.2831,Oberpfaffenhofen Airport,EU,DE
EDMP,48.426109,12.345278,Vilsbiburg Airfield,EU,DE
EDMQ,48.703062,10.852323,Donauwörth-Genderkingen Airfield,EU,DE
EDMS,48.900833,12.516667,Straubing Airport,EU,DE
EDMT,48.009998,10.098611,Tannheim Airfield,EU,DE
EDMU,48.569343,10.358541,Gundelfingen Airfield,EU,DE
EDMV,48.634998,13.195556,Vilshofen Airfield,EU,DE
EDMW,48.830276,12.879722,Deggendorf Airfield,EU,DE
EDMY,48.279575,12.500453,Mühldorf Airfield,EU,DE
EDNA,48.263611,12.411667,Ampfing-Waldkraiburg Airfield,EU,DE
EDNB,49.124722,12.985556,Arnbruck Airfield,EU,DE
EDNC,49.021389,11.484722,Beilngries Airfield,EU,DE
EDND,49.06508,10.403516,Dinkelsbühl-Sinbronn Airfield,EU,DE
EDNE,48.34222,9.916111,Erbach Airfield,EU,DE
EDNF,48.822498,13.3675,Elsenthal Grafe Airfield,EU,DE
EDNG,48.634253,10.216484,Giengen/Brenz Airfield,EU,DE
EDNH,48.016124,10.615025,Bad Wörishofen (Nord) Airfield,EU,DE
EDNI,49.131043,11.443205,Berching Airfield,EU,DE
EDNJ,48.781944,11.215278,Neuburg-Egweil Airfield,EU,DE
EDNK,48.238335,12.976667,Kirchdorf/Inn Airfield,EU,DE
EDNL,47.858891,10.014167,Leutkirch-Unterzeil Airfield,EU,DE
EDNM,49.2225,12.296667,Nittenau-Bruck Airfield,EU,DE
EDNO,48.870556,10.505,Nördlingen Airfield,EU,DE
EDNP,48.420277,12.864722,Pfarrkirchen Airfield,EU,DE
EDNQ,48.848057,10.333889,Bopfingen Airfield,EU,DE
EDNR,49.141945,12.081944,Regensburg-Oberhub Airfield,EU,DE
EDNS,48.179169,10.702778,Schwabmünchen Airfield,EU,DE
EDNT,48.996113,10.884167,Treuchtlingen-Bubenheim Airfield,EU,DE
EDNU,48.290001,10.441944,Thannhausen Airfield,EU,DE
EDNV,47.94611,12.204722,Vogtareuth Airfield,EU,DE
EDNW,48.289444,10.140278,Weißenhorn Airfield,EU,DE
EDNX,48.239166,11.559334,Schleissheim Airfield,EU,DE
EDNY,47.671299,9.51149,Friedrichshafen Airport,EU,DE
EDNZ,50.136944,11.794444,Zell-Haidberg Airfield,EU,DE
EDOA,50.497305,12.377987,Auerbach Airfield,EU,DE
EDOB,50.904446,11.260278,Bad Berka Airfield,EU,DE
EDOC,52.529641,11.349421,Gardelegen Airfield,EU,DE
EDOD,51.900833,13.194444,Reinsdorf Airfield,EU,DE
EDOE,51.21389,12.363611,Böhlen Airfield,EU,DE
EDOF,51.372501,11.141389,Bad Frankenhausen Airfield,EU,DE
EDOG,51.570907,13.051641,Torgau-Beilrode Airfield,EU,DE
EDOH,50.948334,13.261667,Langhennersdorf Airfield,EU,DE
EDOI,52.661667,12.745833,Bienenfarm Airfield,EU,DE
EDOJ,52.142706,12.67144,Lüsse Airfield,EU,DE
EDOK,50.732777,11.236111,Rudolstadt-Groschwitz Airfield,EU,DE
EDOL,52.038055,11.205556,Oschersleben Glider Field,EU,DE
EDOM,51.947498,11.769722,Klein Mühlingen Airfield,EU,DE
EDON,52.613056,14.242778,Neuhardenberg Marxwalde Airfield,EU,DE
EDOQ,51.296772,13.078687,Oschatz Airfield,EU,DE
EDOR,52.740833,12.39,Stölln-Rhinow Airfield,EU,DE
EDOS,50.669692,11.051087,Pennewitz Airfield,EU,DE
EDOT,50.643977,12.174568,Greiz-Obergrochlitz Airfield,EU,DE
EDOU,50.965085,11.399796,Weimar-Umpferstedt Airfield,EU,DE
EDOV,52.628887,11.818611,Stendal-Borstel Airfield,EU,DE
EDOW,53.568333,12.652778,Waren-Vielist Airfield,EU,DE
EDOX,51.595112,12.237911,Renneritz Airfield,EU,DE
EDOZ,51.997129,11.789789,Schönebeck-Zackmünde Airfield,EU,DE
EDPA,48.777779,10.264722,Aalen Heidenheim Elchingen Airfield,EU,DE
EDPB,48.562778,9.728889,Bad Ditzenbach Airfield,EU,DE
EDPC,47.926899,12.2872,Bad Endorf/Jolling Airfield,EU,DE
EDPD,48.656727,12.498794,Dingolfing Airfield,EU,DE
EDPE,48.876945,11.182222,Eichstätt Airfield,EU,DE
EDPF,49.339722,12.188056,Schwandorf Airfield,EU,DE
EDPG,48.953888,12.421389,Griesau Airfield,EU,DE
EDPH,49.268019,11.012606,Schwabach-Heidenberg Airfield,EU,DE
EDPI,48.456588,11.941624,Moosburg auf der Kippe Airfield,EU,DE
EDPJ,48.496944,9.640278,Laichingen Jakob Laur Airfield,EU,DE
EDPK,48.047779,12.500556,Schönberg Airfield,EU,DE
EDPM,48.678177,9.845909,Donzdorf Airfield,EU,DE
EDPO,49.285557,11.443056,Neumarkt-Oberpfalz Airfield,EU,DE
EDPQ,49.429443,12.098056,Schmidgaden Airfield,EU,DE
EDPS,48.682777,13.694722,Flugplatz Sonnen,EU,DE
EDPT,48.620277,10.058333,Gerstetten Airfield,EU,DE
EDPU,48.746666,10.005,Bartholomä-Amalienhof Airfield,EU,DE
EDPW,49.064167,11.209167,Thalmässing-Waizenhofen Airfield,EU,DE
EDPY,48.961483,10.234494,Ellwangen Airfield,EU,DE
EDQA,49.920403,10.914233,Bamberg-Breitenau Airfield,EU,DE
EDQB,49.509998,10.366389,Bad Windsheim Airfield,EU,DE
EDQC,50.262501,10.995556,Coburg-Brandensteinsebene Airfield,EU,DE
EDQD,49.985001,11.64,Bayreuth Airport,EU,DE
EDQE,49.794167,11.133611,Burg Feuerstein Airport,EU,DE
EDQF,49.361111,10.669444,Ansbach-Petersdorf Airfield,EU,DE
EDQG,49.6480560303,9.966388702390002,Giebelstadt Airport,EU,DE
EDQH,49.582708,10.878339,Herzogenaurach Airfield,EU,DE
EDQI,49.605162,11.283581,Lauf-Lillinghof Airfield,EU,DE
EDQK,50.134921,11.459069,Kulmbach Airfield,EU,DE
EDQL,50.148609,11.048056,Lichtenfels Airfield,EU,DE
EDQM,50.288544,11.852876,Hof-Plauen Airport,EU,DE
EDQN,49.587502,10.5775,Neustadt/Aisch Airfield,EU,DE
EDQO,50.225834,11.731667,Ottengrüner Heide Airfield,EU,DE
EDQP,49.863335,11.787778,Rosenthal-Plössen Airfield,EU,DE
EDQR,50.039444,10.822778,Ebern-Sendelbach Airfield,EU,DE
EDQS,50.632047,10.726013,Suhl-Goldlauter Airfield,EU,DE
EDQT,50.0182,10.529165,Haßfurt-Schweinfurt Airfield,EU,DE
EDQW,49.678902,12.1164,Weiden in der Oberpfalz Airfield,EU,DE
EDQX,49.642341,11.162574,Hetzleser Berg Airfield,EU,DE
EDQY,50.230556,10.995833,Coburg-Steinrücken Airfield,EU,DE
EDQZ,49.76238,11.574619,Pegnitz-Zipser Berg Airfield,EU,DE
EDRA,50.557779,7.137144,Bad Neuenahr-Ahrweiler Airfield,EU,DE
EDRB,49.945278,6.565,Bitburg Airport,EU,DE
EDRC,49.453,7.039,Marpingen Glider Airfield,EU,DE
EDRD,49.843056,6.916111,Neumagen-Dhron Airfield,EU,DE
EDRF,49.4728,8.195737,Bad Dürkheim Airfield,EU,DE
EDRG,49.732224,7.336111,Idar-Oberstein/Göttschied Airfield,EU,DE
EDRH,49.610558,7.186667,Hoppstädten-Weiersbach Airfield,EU,DE
EDRI,49.141666,8.394722,Linkenheim Airfield,EU,DE
EDRJ,49.3125,6.674444,Saarlouis-Düren Airfield,EU,DE
EDRK,50.325558,7.528611,Koblenz-Winningen Airfield,EU,DE
EDRL,49.330833,8.209722,Flugplatz Lachen-Speyerdorf,EU,DE
EDRM,49.967777,7.111944,Traben-Trarbach/Mont Royal Airfield,EU,DE
EDRN,49.96992,7.478357,Nannhausen Airfield,EU,DE
EDRO,49.031884,7.990508,Schweighofen Airfield,EU,DE
EDRP,49.264442,7.488333,Pirmasens-Pottschütthöhe Airfield,EU,DE
EDRS,49.790833,7.666111,Bad Sobernheim-Domberg Airfield,EU,DE
EDRT,49.863888,6.7875,Trier-Föhren Airfield,EU,DE
EDRV,50.451902,6.784086,Wershofen/Eifel Airfield,EU,DE
EDRW,50.566113,7.653333,Dierdorf-Wienau Airfield,EU,DE
EDRX,49.34,7.253333,Bexbach Glider Field,EU,DE
EDRY,49.304722,8.451389,Speyer Airfield,EU,DE
EDRZ,49.2094,7.40056,Zweibrücken Airport,EU,DE
EDSA,48.249722,9.0625,Albstadt-Degerfeld Airfield,EU,DE
EDSB,48.7794,8.0805,Karlsruhe Baden-Baden Airport,EU,DE
EDSE,48.658611,9.624167,Göppingen-Bezgenriet Airfield,EU,DE
EDSG,48.53611,9.436944,Grabenstetten Airfield,EU,DE
EDSH,48.919724,9.455278,Backnang-Heiningen Airfield,EU,DE
EDSI,47.798772,8.718553,Binningen Glider Field,EU,DE
EDSK,48.561111,7.843333,Kehl-Sundheim Airfield,EU,DE
EDSL,47.843676,8.564344,Blumberg Airfield,EU,DE
EDSN,47.976665,8.903889,Neuhausen ob Eck Airfield,EU,DE
EDSO,48.6212,9.6557,Gruibingen-Nortel Airfield,EU,DE
EDSP,48.547282,8.945918,Poltringen Airfield,EU,DE
EDSR,47.802587,8.979378,Radolfzell-Stahlringen Airfield,EU,DE
EDST,48.631841,9.429201,Hahnweide Airfield,EU,DE
EDSW,48.269883,7.841942,Altdorf-Wallburg Airfield,EU,DE
EDSX,49.009332,9.354601,Völkleshofen-Lichtenberg Airfield,EU,DE
EDSZ,48.186604,8.722801,Rottweil-Zepfenhan Airfield,EU,DE
EDTB,48.791943,8.185833,Baden-Oos Airfield,EU,DE
EDTC,49.13484,8.56412,Bruchsal Airfield,EU,DE
EDTD,47.973331,8.522222,Donaueschingen-Villingen Airfield,EU,DE
EDTF,48.022778,7.8325,Freiburg im Breisgau Airfield,EU,DE
EDTG,47.903186,7.617416,Bremgarten Airfield,EU,DE
EDTH,48.802996,9.927714,Heubach Airfield,EU,DE
EDTL,48.369301,7.82772,Lahr Airport,EU,DE
EDTM,48.05389,9.372778,Mengen-Hohentengen Airfield,EU,DE
EDTN,48.612778,9.477222,Nabern-Teck Airfield,EU,DE
EDTO,48.448134,7.92356,Offenburg-Baden Airfield,EU,DE
EDTP,47.90889,9.250556,Pfullendorf Airfield,EU,DE
EDTQ,48.864166,9.224722,Pattonville Airfield,EU,DE
EDTR,47.56028,7.748333,Herten-Rheinfelden Airfield,EU,DE
EDTS,48.065834,8.571389,Schwenningen am Neckar Airfield,EU,DE
EDTU,48.029446,9.507222,Bad Saulgau Airfield,EU,DE
EDTW,48.279167,8.428333,Winzeln-Schramberg Airfield,EU,DE
EDTX,49.124443,9.781111,Schwäbisch Hall-Weckrieden Airfield,EU,DE
EDTY,49.118332,9.783889,Adolf Würth Airport,EU,DE
EDTZ,47.681435,9.139258,Konstanz Airfield,EU,DE
EDUA,52.650555,12.487778,Flugplatz Stechow-Ferchesar,EU,DE
EDUF,51.547779,13.228056,Falkenberg-Lönnewitz Airfield,EU,DE
EDUO,51.5425,11.595833,Oberrißdorf Airfield,EU,DE
EDUS,51.60725,13.737545,Finsterwalde-Schacksdorf Airfield,EU,DE
EDUW,53.917028,13.22046,Tutow-Betriebs Airfield,EU,DE
EDUZ,52.000832,12.148611,Zerbst Airfield,EU,DE
EDVA,51.854168,10.025556,Bad Gandersheim Airfield,EU,DE
EDVC,52.687222,10.111389,Celle-Arloh Airfield,EU,DE
EDVE,52.319199,10.5561,Braunschweig-Wolfsburg Airport,EU,DE
EDVF,51.917221,9.111667,Blomberg-Borkhausen Airfield,EU,DE
EDVG,51.376387,8.981111,Mengeringhausen Airfield,EU,DE
EDVH,52.761865,9.61056,Hodenhagen Airfield,EU,DE
EDVI,51.806667,9.378333,Höxter-Holzminden Airfield,EU,DE
EDVJ,52.030682,10.362468,Salzgitter-Schäferstuhl Airfield,EU,DE
EDVK,51.420699,9.392152,Kassel Airport,EU,DE
EDVL,51.610881,9.398375,Hölleberg Airfield,EU,DE
EDVM,52.179819,9.945803,Hildesheim Airfield,EU,DE
EDVN,51.70639,10.039722,Northeim Airfield,EU,DE
EDVR,52.175278,9.053333,Rinteln Airfield,EU,DE
EDVS,52.154446,10.426667,Salzgitter-Drütte Airfield,EU,DE
EDVT,51.952,9.662,Ithwiesen Airfield,EU,DE
EDVU,52.9837,10.465422,Uelzen Airfield,EU,DE
EDVW,51.966667,9.291667,Bad Pyrmont Airfield,EU,DE
EDVY,52.221367,8.859765,Porta Westfalica Airfield,EU,DE
EDWC,52.487558,8.185151,Damme Airfield,EU,DE
EDWE,53.391109,7.2275,Emden Airport,EU,DE
EDWF,53.271942,7.441667,Flugplatz Leer-Papenburg,EU,DE
EDWG,53.782544,7.919584,Wangerooge Airport,EU,DE
EDWH,53.06889,8.313611,Oldenburg-Hatten Airfield,EU,DE
EDWI,53.50222,8.052222,JadeWeser Airport,EU,DE
EDWJ,53.681421,7.056398,Juist Airport,EU,DE
EDWK,53.332779,9.028333,Karlshöfen Airfield,EU,DE
EDWL,53.742379,7.496345,Langeoog Airport,EU,DE
EDWM,53.05389,9.208611,Weser-Wümme Airfield,EU,DE
EDWN,52.4575,7.182222,Flugplatz Nordhorn-Lingen,EU,DE
EDWO,52.286388,7.969722,Atterheide Airfield,EU,DE
EDWP,53.321388,8.073333,Wiefelstede-Conneforde Airfield,EU,DE
EDWQ,53.03611,8.505556,Ganderkesee Atlas Airfield,EU,DE
EDWR,53.59639,6.709167,Borkum Airport,EU,DE
EDWS,53.633057,7.190278,Norden-Norddeich Airport,EU,DE
EDWU,52.908333,8.040556,Varrelbusch Airfield,EU,DE
EDWV,52.965279,9.282778,Verden-Scharnhorst Airfield,EU,DE
EDWX,53.288612,7.930556,Westerstede-Felde Airfield,EU,DE
EDWY,53.706944,7.23,Norderney Airport,EU,DE
EDWZ,53.72485,7.373257,Baltrum Airport,EU,DE
EDXA,52.37722,7.913333,Flugplatz Achmer,EU,DE
EDXB,54.153332,8.901667,Heide-Büsum Airport,EU,DE
EDXC,54.425497,9.541883,Schleswig-Kropp Airfield,EU,DE
EDXD,52.351391,8.328333,Bohmte-Bad Essen Airfield,EU,DE
EDXE,52.276389,7.492778,Rheine-Eschendorf Airfield,EU,DE
EDXF,54.773335,9.378889,Flensburg-Schäferhaus Airport,EU,DE
EDXG,52.200832,8.380556,Melle-Grönegau Airfield,EU,DE
EDXH,54.1852798462,7.91583299637,Helgoland-Düne Airport,EU,DE
EDXI,52.709721,9.1625,Nienburg-Holzbalge Airfield,EU,DE
EDXJ,54.5099983215,9.13833332062,Husum-Schwesing Airport,EU,DE
EDXK,54.790905,8.963439,Leck Airfield,EU,DE
EDXL,53.164444,7.793889,Barßel Airfield,EU,DE
EDXM,53.978263,9.14521,Sankt Michaelisdonn Airfield,EU,DE
EDXN,53.767223,8.643611,Nordholz-Spieka Airfield,EU,DE
EDXO,54.308887,8.686944,Sankt Peter-Ording Airport,EU,DE
EDXP,53.706669,7.820278,Harlesiel Airfield,EU,DE
EDXQ,53.128334,9.348611,Rotenburg (Wümme) Airfield,EU,DE
EDXR,54.220001,9.599444,Rendsburg-Schachtholm Airfield,EU,DE
EDXS,53.335556,9.259444,Seedorf Airfield,EU,DE
EDXT,54.066743,10.742183,Sierksdorf/Hof Altona Airfield,EU,DE
EDXU,53.286667,8.947222,Hüttenbusch Airfield,EU,DE
EDXW,54.9132,8.34047,Westerland Sylt Airport,EU,DE
EDXY,54.684444,8.528333,Wyk auf Föhr Airport,EU,DE
EDXZ,53.568054,8.789444,Kührstedt-Bederkesa Airfield,EU,DE
EEAA,57.826111,26.4925,Antsla Airfield,EU,EE
EEAE,59.204711,24.610995,Aespa Airfield,EU,EE
EEEI,59.259599,24.204799,Ämari Air Base,EU,EE
EEHA,59.3579,24.3795,Humala Airfield,EU,EE
EEJI,59.325974,27.392883,Jõhvi Airfield,EU,EE
EEKA,58.99079895019531,22.830699920654297,Kärdla Airport,EU,EE
EEKE,58.22990036010742,22.50950050354004,Kuressaare Airport,EU,EE
EEKI,58.117078,25.552783,Karksi Airfield,EU,EE
EEKO,59.168317,25.07097,Kose Airfield,EU,EE
EEKU,58.148039,23.998523,Kihnu Airfield,EU,EE
EELM,58.290658,26.767748,Lange Airfield (Lennundusmuuseum),EU,EE
EELU,59.02211,23.57808,Lyckholm Airstrip,EU,EE
EEMU,58.653495,23.271369,Muhu Airfield,EU,EE
EENA,59.388599,28.1136,Narva Airfield,EU,EE
EEPA,59.018446,23.489258,Paslepa Airfield,EU,EE
EEPU,58.41899871826172,24.47279930114746,Pärnu Airport,EU,EE
EERA,58.99028,24.716386,Rapla Airfield,EU,EE
EERD,58.08457,25.89877,Riidaja Airfield,EU,EE
EERI,57.939999,26.979,Ridali Airfield,EU,EE
EERU,57.78559,23.262377,Ruhnu Airfield,EU,EE
EETI,57.952306,26.476493,Tõutsi Private Airfield,EU,EE
EETN,59.413246,24.83264,Lennart Meri Tallinn Airport,EU,EE
EETS,58.809444,24.184723,Teenuse-Saare Aerodrome,EU,EE
EETU,58.307438,26.686473,Tartu Airport,EU,EE
EEVI,58.348374,25.494831,Viljandi Airfield,EU,EE
EEVO,58.985169,23.252056,Vormsi Airfield,EU,EE
EEVU,57.63288,26.671085,Varstu Airfield,EU,EE
EFAA,67.6036,23.971701,Aavahelukka Airfield,EU,FI
EFAH,64.895302,25.752199,Ahmosuo Airfield,EU,FI
EFAL,62.554699,23.573299,Alavus Airfield,EU,FI
EFET,68.362602233887,23.424299240112,Enontekio Airport,EU,FI
EFEU,61.1161,22.201401,Eura Airfield,EU,FI
EFFO,60.803683,23.650802,Forssa Airfield,EU,FI
EFGE,60.086899,22.5219,Genböle Airfield UL,EU,FI
EFHA,61.856039,24.786686,Halli Airport,EU,FI
EFHK,60.318363,24.963341,Helsinki Vantaa Airport,EU,FI
EFHL,64.969553,24.704218,Hailuoto Airfield,EU,FI
EFHM,61.689701,23.0737,Hämeenkyrö Airfield,EU,FI
EFHN,59.8489,23.083599,Hanko Airfield,EU,FI
EFHP,64.113098,25.5042,Haapavesi Airfield,EU,FI
EFHV,60.6544,24.8811,Hyvinkää Airfield,EU,FI
EFII,63.631901,27.1222,Iisalmi Airfield,EU,FI
EFIK,60.462502,23.6525,Kiikala Airfield,EU,FI
EFIM,61.249199,28.9037,Immola Airfield,EU,FI
EFIT,62.1661,30.073601,Kitee Airport,EU,FI
EFIV,68.607299804688,27.405300140381,Ivalo Airport,EU,FI
EFJI,62.324167,22.694167,Ilvesjoki UL,EU,FI
EFJM,61.778599,22.716101,Jämijärvi Airfield,EU,FI
EFJO,62.658815,29.619398,Joensuu Airport,EU,FI
EFJP,68.711403,25.7528,Jäkäläpää Airfield,EU,FI
EFJY,62.399502,25.678301,Jyväskylä Airport,EU,FI
EFKA,63.127102,23.051399,Kauhava Airfield,EU,FI
EFKE,65.778701782227,24.582099914551,Kemi-Tornio Airport,EU,FI
EFKG,60.246899,20.804701,Kumlinge Airfield,EU,FI
EFKH,64.112503,29.438601,Kuhmo Airfield,EU,FI
EFKI,64.2855,27.6924,Kajaani Airport,EU,FI
EFKJ,62.463212,22.390817,Kauhajoki Airfield,EU,FI
EFKK,63.721199,23.143101,Kokkola-Pietarsaari Airport,EU,FI
EFKM,66.712898,27.156799,Kemijärvi Airfield,EU,FI
EFKN,63.920601,24.0867,Kannus Airfield,EU,FI
EFKO,64.2286,23.826401,Kalajoki Airfield,EU,FI
EFKR,63.989201,25.743601,Kärsämäki Airfield,EU,FI
EFKS,65.987602,29.239401,Kuusamo Airport,EU,FI
EFKT,67.700996398926,24.846799850464,Kittilä Airport,EU,FI
EFKU,63.007099,27.7978,Kuopio Airport,EU,FI
EFKV,63.125301,25.124201,Kivijärvi Airfield,EU,FI
EFKY,60.5714,26.896099,Kymi Airfield,EU,FI
EFLA,61.144199,25.693501,Lahti Vesivehmaa Airfield,EU,FI
EFLL,63.399399,27.478901,Lapinlahti Airfield,EU,FI
EFLN,63.511902,29.6292,Lieksa Nurmes Airfield,EU,FI
EFLP,61.044601,28.144743,Lappeenranta Airport,EU,FI
EFMA,60.1222,19.898199,Mariehamn Airport,EU,FI
EFME,62.946701,23.5189,Menkijärvi Airfield,EU,FI
EFMI,61.6866,27.201799,Mikkeli Airport,EU,FI
EFML,65.301144,25.416226,Ii Airfield,EU,FI
EFMN,60.572498,25.5089,Mäntsälä Airfield UL,EU,FI
EFNS,60.52,24.831699,Savikko Airfield,EU,FI
EFNU,60.3339,24.2964,Nummela Airfield,EU,FI
EFOP,60.8764,22.744699,Oripää Airfield,EU,FI
EFOU,64.930099,25.354601,Oulu Airport,EU,FI
EFPA,68.150223,25.829372,Pokka Airfield,EU,FI
EFPI,61.245602,22.193399,Piikajarvi Airfield,EU,FI
EFPK,62.264702,27.0028,Pieksämäki Airfield,EU,FI
EFPN,61.728901,29.3936,Punkaharju Airfield,EU,FI
EFPO,61.4617,21.799999,Pori Airport,EU,FI
EFPR,60.479167,26.593889,Helsinki East-Redstone Aerodrome,EU,FI
EFPU,65.402199,26.946899,Pudasjärvi Airfield,EU,FI
EFPY,63.731899,25.9263,Pyhäsalmi Airfield,EU,FI
EFRA,63.424198,28.124201,Rautavaara Airfield,EU,FI
EFRH,64.688103,24.695801,Raahe Pattijoki Airfield,EU,FI
EFRN,62.065498,28.356501,Rantasalmi Airfield,EU,FI
EFRO,66.564796447754,25.830400466919,Rovaniemi Airport,EU,FI
EFRU,65.973099,26.365299,Ranua Airfield,EU,FI
EFRV,63.705601,26.6164,Kiuruvesi Airfield,EU,FI
EFRY,60.744701,24.1078,Räyskälä Airfield,EU,FI
EFSA,61.9431,28.945101,Savonlinna Airport,EU,FI
EFSE,61.062401,26.798901,Selanpaa Airfield,EU,FI
EFSI,62.692101,22.8323,Seinäjoki Airport,EU,FI
EFSO,67.3949966431,26.6191005707,Sodankyla Airport,EU,FI
EFSU,64.821899,28.7103,Suomussalmi Airfield,EU,FI
EFTO,60.079201,24.172199,Torbacka Airfield,EU,FI
EFTP,61.414101,23.604401,Tampere-Pirkkala Airport,EU,FI
EFTU,60.514099,22.2628,Turku Airport,EU,FI
EFUT,60.8964,26.9384,Utti Air Base,EU,FI
EFVA,63.050701,21.762199,Vaasa Airport,EU,FI
EFVI,63.122501,25.816099,Viitasaari Airfield,EU,FI
EFVL,64.5019,26.76,Vaala Airfield,EU,FI
EFVP,61.0397,22.5917,Vampula Airfield,EU,FI
EFVR,62.171101,27.868601,Varkaus Airport,EU,FI
EFVT,63.3978,24.0306,Sulkaharju Airfield,EU,FI
EFVU,68.087196,27.123899,Vuotso Airfield,EU,FI
EFWB,60.663601,26.7458,Wredeby Airfield,EU,FI
EFYL,64.054722,24.725278,Ylivieska Airfield,EU,FI
EGAA,54.6575012207,-6.21582984924,Belfast International Airport,EU,GB
EGAB,54.398899,-7.65167,Enniskillen/St Angelo Airport,EU,GB
EGAC,54.618099,-5.8725,George Best Belfast City Airport,EU,GB
EGAD,54.5811,-5.69194,Newtownards Airport,EU,GB
EGAE,55.04280090332031,-7.161109924316406,City of Derry Airport,EU,GB
EGBB,52.453899,-1.74803,Birmingham Airport,EU,GB
EGBD,52.859699,-1.6175,Derby Airfield,EU,GB
EGBE,52.369701,-1.47972,Coventry Airport,EU,GB
EGBF,52.2325,-0.445556,Bedford Aerodrome,EU,GB
EGBG,52.606574,-1.030226,Leicester Airport,EU,GB
EGBJ,51.89419937133789,-2.167220115661621,Gloucestershire Airport,EU,GB
EGBK,52.305302,-0.793056,Sywell Aerodrome,EU,GB
EGBM,52.81431,-1.767942,Tatenhill Airfield,EU,GB
EGBN,52.919998,-1.07917,Nottingham City Airport,EU,GB
EGBO,52.517502,-2.25944,Wolverhampton Halfpenny Green Airport,EU,GB
EGBP,51.668528,-2.056599,Cotswold Airport,EU,GB
EGBS,52.241699,-2.88111,Shobdon Airfield,EU,GB
EGBT,52.040798,-1.09556,Turweston Aerodrome,EU,GB
EGBW,52.189353,-1.614089,Wellesbourne Mountford Airfield,EU,GB
EGCA,53.304809,-1.42886,Coal Aston Airfield,EU,GB
EGCB,53.471699,-2.38972,Manchester Barton Aerodrome,EU,GB
EGCC,53.349375,-2.279521,Manchester Airport,EU,GB
EGCF,53.559358,-0.859043,Sandtoft Airfield,EU,GB
EGCG,53.310822,0.172098,Strubby Airfield,EU,GB
EGCJ,53.788458,-1.216877,Sherburn-in-Elmet Airfield,EU,GB
EGCK,53.101819,-4.337614,Caernarfon Airport,EU,GB
EGCL,52.739201,-0.029722,Fenland Airfield,EU,GB
EGCS,53.381242,-0.6848,Sturgate Airfield,EU,GB
EGCT,52.932363,-2.647435,Tilstock Airfield,EU,GB
EGCV,52.834809,-2.770312,Sleap Airfield,EU,GB
EGCW,52.628601,-3.15333,Welshpool Airport,EU,GB
EGDC,51.0872,-4.15034,Royal Marines Base Chivenor,EU,GB
EGDJ,51.28657,-1.782239,Upavon Aerodrome,EU,GB
EGDM,51.152199,-1.74741,MoD Boscombe Down,EU,GB
EGDN,51.2472,-1.75425,Netheravon Airfield,EU,GB
EGDO,50.001202,-5.23083,Predannack Airfield,EU,GB
EGDR,50.08610153198242,-5.255710124969482,RNAS Culdrose,EU,GB
EGDW,50.964283,-2.938443,RNAS Merryfield,EU,GB
EGDX,51.405229,-3.433254,MOD St Athan,EU,GB
EGDY,51.009399,-2.63882,RNAS Yeovilton,EU,GB
EGEC,55.437198638916016,-5.686389923095703,Campbeltown Airport,EU,GB
EGED,59.19060134887695,-2.7722198963165283,Eday Airport,EU,GB
EGEF,59.534721,-1.628509,Fair Isle Airport,EU,GB
EGEH,60.376835,-0.927229,Whalsay Airstrip,EU,GB
EGEI,57.253399,-5.8279,Broadford Airstrip,EU,GB
EGEL,56.601898,-6.61778,Coll Airport,EU,GB
EGEN,59.3675003052,-2.43443989754,North Ronaldsay Airport,EU,GB
EGEO,56.463501,-5.39967,Oban Airport,EU,GB
EGEP,59.351699829100006,-2.9002799987800003,Papa Westray Airport,EU,GB
EGER,59.1553,-2.64139,Stronsay Airport,EU,GB
EGES,59.250301,-2.57667,Sanday Airport,EU,GB
EGET,60.1922,-1.24361,Lerwick / Tingwall Airport,EU,GB
EGEW,59.3502998352,-2.95000004768,Westray Airport,EU,GB
EGEY,56.057499,-6.24306,Colonsay Airstrip,EU,GB
EGFA,52.1152992249,-4.556940078739999,Aberporth Airport,EU,GB
EGFD,52.811699,-4.12358,Llanbedr Airfield,EU,GB
EGFE,51.833099365234375,-4.9611101150512695,Haverfordwest Airport,EU,GB
EGFF,51.396702,-3.34333,Cardiff International Airport,EU,GB
EGFH,51.601366,-4.071006,Swansea Airport,EU,GB
EGFP,51.713902,-4.31222,Pembrey West Wales Airport,EU,GB
EGGD,51.382702,-2.71909,Bristol Airport,EU,GB
EGGP,53.333599,-2.84972,Liverpool John Lennon Airport,EU,GB
EGGW,51.874699,-0.368333,London Luton Airport,EU,GB
EGHA,50.967201,-2.15361,Compton Abbas Aerodrome,EU,GB
EGHC,50.102798,-5.67056,Land's End Airport,EU,GB
EGHE,49.913375,-6.291894,St. Mary's Airport,EU,GB
EGHF,50.814201,-1.20333,Solent Airport,EU,GB
EGHG,50.939999,-2.65861,Yeovil/Westland Aerodrome,EU,GB
EGHH,50.780483,-1.839576,Bournemouth Airport,EU,GB
EGHI,50.950298,-1.3568,Southampton Airport,EU,GB
EGHJ,50.678101,-1.10944,Bembridge Airport,EU,GB
EGHL,51.18744,-1.031663,Lasham Airfield,EU,GB
EGHN,50.653099,-1.18222,Isle of Wight/Sandown Airport,EU,GB
EGHO,51.210602,-1.6,Thruxton Aerodrome,EU,GB
EGHP,51.194688,-1.233071,Popham Airfield,EU,GB
EGHQ,50.440601,-4.99541,Cornwall Airport Newquay,EU,GB
EGHR,50.859832,-0.760073,Goodwood Aerodrome,EU,GB
EGHS,50.985001,-2.35722,Henstridge Airfield,EU,GB
EGHU,50.928651,-3.988446,Eaglescott Airfield,EU,GB
EGHY,50.2784,-5.14229,Truro Aerodrome,EU,GB
EGJA,49.706104,-2.21472,Alderney Airport,EU,GG
EGJB,49.435001,-2.60197,Guernsey Airport,EU,GG
EGJJ,49.20790100097656,-2.195509910583496,Jersey Airport,EU,JE
EGKA,50.835602,-0.297222,Brighton City Airport,EU,GB
EGKB,51.33079910279999,0.0324999988079,London Biggin Hill Airport,EU,GB
EGKE,51.208302,0.829167,Challock Airfield,EU,GB
EGKH,51.156898,0.641667,Headcorn Aerodrome,EU,GB
EGKK,51.148771,-0.192089,London Gatwick Airport,EU,GB
EGKL,50.881093,0.154345,Deanland Lewes Airfield,EU,GB
EGKR,51.2136,-0.138611,Redhill Aerodrome,EU,GB
EGLA,50.499698638916016,-4.665830135345459,Bodmin Airfield,EU,GB
EGLC,51.505299,0.055278,London City Airport,EU,GB
EGLD,51.588299,-0.513056,Denham Aerodrome,EU,GB
EGLF,51.275799,-0.776333,Farnborough Airport,EU,GB
EGLJ,51.676102,-1.08083,Chalgrove Airfield,EU,GB
EGLK,51.323898,-0.8475,Blackbushe Airport,EU,GB
EGLL,51.4706,-0.461941,London Heathrow Airport,EU,GB
EGLM,51.500801,-0.774444,White Waltham Airfield,EU,GB
EGLP,51.383456,-1.172096,Brimpton Airfield,EU,GB
EGLS,51.0989,-1.78417,Old Sarum Airfield,EU,GB
EGMA,52.077499,0.061667,Fowlmere Airfield,EU,GB
EGMC,51.570562,0.693627,London Southend Airport,EU,GB
EGMD,50.956246,0.939074,Lydd London Ashford Airport,EU,GB
EGMF,51.332788,0.601058,Farthing Corner / Stoneacre Farm Airfield,EU,GB
EGMJ,52.165977,-0.149222,Little Gransden Airfield,EU,GB
EGML,51.527561,0.244189,Damyns Hall Aerodrome,EU,GB
EGMT,51.537505,0.367634,Thurrock Airfield,EU,GB
EGNC,54.9375,-2.80917,Carlisle Lake District Airport,EU,GB
EGNE,53.280602,-0.951389,Retford Gamston Airport,EU,GB
EGNF,53.317182,-1.195573,Netherthorpe Airfield,EU,GB
EGNG,54.211226,-1.292417,Bagby Thirsk Airfield,EU,GB
EGNH,53.771702,-3.02861,Blackpool Airport,EU,GB
EGNI,53.1716,0.329375,Skegness (Ingoldmells) Aerodrome,EU,GB
EGNJ,53.576152,-0.34954,Humberside Airport,EU,GB
EGNL,54.1286111,-3.2675,Barrow Walney Island Airport,EU,GB
EGNM,53.865898,-1.66057,Leeds Bradford Airport,EU,GB
EGNO,53.745098,-2.88306,Warton Aerodrome,EU,GB
EGNR,53.178101,-2.97778,Hawarden Airport,EU,GB
EGNS,54.083302,-4.62389,Isle of Man Airport,EU,IM
EGNT,55.037958,-1.689577,Newcastle International Airport,EU,GB
EGNU,53.980598,-0.864722,Full Sutton Airfield,EU,GB
EGNV,54.509201,-1.42941,Teesside International Airport,EU,GB
EGNW,53.3167,-0.349722,Wickenby Aerodrome,EU,GB
EGNX,52.8311,-1.32806,East Midlands Airport,EU,GB
EGNY,53.898384,-0.36139,Beverley/Linley Hill Airfield,EU,GB
EGOE,52.872775,-2.532692,Tern Hill Airfield,EU,GB
EGOM,55.0499992371,-2.54999995232,RAF Spadeadam,EU,GB
EGOQ,53.258598,-4.37355,RAF Mona,EU,GB
EGOS,52.798199,-2.66804,RAF Shawbury,EU,GB
EGOV,53.2481,-4.53534,Anglesey Airport,EU,GB
EGOW,53.5816,-3.05552,RAF Woodvale,EU,GB
EGPA,58.957801818847656,-2.9049999713897705,Kirkwall Airport,EU,GB
EGPB,59.878899,-1.29556,Sumburgh Airport,EU,GB
EGPC,58.4589,-3.09306,Wick John O'Groats Airport,EU,GB
EGPD,57.2019,-2.19778,Aberdeen International Airport,EU,GB
EGPE,57.54249954223633,-4.047500133514404,Inverness Airport,EU,GB
EGPF,55.871899,-4.43306,Glasgow Airport,EU,GB
EGPG,55.974701,-3.97556,Cumbernauld Airport,EU,GB
EGPH,55.950145,-3.372288,Edinburgh Airport,EU,GB
EGPI,55.682708,-6.257525,Islay Airport,EU,GB
EGPJ,56.1833,-3.22028,Fife Airport,EU,GB
EGPK,55.502003,-4.587019,Glasgow Prestwick Airport,EU,GB
EGPL,57.48109817504883,-7.362780094146728,Benbecula Airport,EU,GB
EGPN,56.45249938964844,-3.025830030441284,Dundee Airport,EU,GB
EGPO,58.215599,-6.33111,Stornoway Airport,EU,GB
EGPR,57.0228,-7.44306,Barra Airport,EU,GB
EGPS,57.516836,-1.864586,Longside Airfield,EU,GB
EGPT,56.439201,-3.37222,Perth/Scone Airport,EU,GB
EGPU,56.49919891357422,-6.869170188903809,Tiree Airport,EU,GB
EGPW,60.7472,-0.85385,Unst Airport,EU,GB
EGQL,56.37398,-2.868862,Leuchars Station Airfield,EU,GB
EGQS,57.7052001953125,-3.339169979095459,RAF Lossiemouth,EU,GB
EGSA,52.629398,0.928056,Shipdham Airfield,EU,GB
EGSC,52.205002,0.175,Cambridge City Airport,EU,GB
EGSD,52.634712,1.722264,Great Yarmouth - North Denes Airport,EU,GB
EGSF,52.468102,-0.251111,Peterborough Business Airport,EU,GB
EGSG,51.6525,0.155833,Stapleford Aerodrome,EU,GB
EGSH,52.6758,1.28278,Norwich Airport,EU,GB
EGSI,52.643611,0.295,Marshland Airfield,EU,GB
EGSJ,52.510997,1.416864,Seething Airfield,EU,GB
EGSL,51.895,0.449167,Andrewsfield Aerodrome,EU,GB
EGSM,52.435299,1.61833,Beccles Airfield,EU,GB
EGSO,52.17251,1.110563,Crowfield Airfield,EU,GB
EGSP,52.5571,-0.386982,Peterborough/Sibson Airfield,EU,GB
EGSQ,51.785,1.13,Clacton Airfield,EU,GB
EGSR,51.914398,0.6825,Earls Colne Airfield,EU,GB
EGSS,51.884998,0.235,London Stansted Airport,EU,GB
EGST,52.075454,0.977654,Elmsett Airfield,EU,GB
EGSU,52.090801,0.131944,Duxford Aerodrome,EU,GB
EGSV,52.497501,1.05194,Old Buckenham Airfield,EU,GB
EGSW,52.235147,0.350643,Newmarket Heath Airfield,EU,GB
EGSX,51.721699,0.154167,North Weald Airfield,EU,GB
EGTB,51.61177,-0.808316,Wycombe Air Park,EU,GB
EGTC,52.072201,-0.616667,Cranfield Airport,EU,GB
EGTD,51.117199,-0.535833,Dunsfold Aerodrome,EU,GB
EGTE,50.734261,-3.413984,Exeter International Airport,EU,GB
EGTF,51.348099,-0.558889,Fairoaks Airport,EU,GB
EGTH,52.084591,-0.3201,Old Warden Airfield,EU,GB
EGTK,51.836899,-1.32,London Oxford Airport,EU,GB
EGTO,51.351898,0.503333,Rochester Airport,EU,GB
EGTP,50.331699,-5.1775,Perranporth Airfield,EU,GB
EGTR,51.6558,-0.325833,Elstree Airfield,EU,GB
EGTU,50.860956,-3.233929,Dunkeswell Airfield,EU,GB
EGTW,51.632198,-2.01472,Oaksey Park Airfield,EU,GB
EGUB,51.614366,-1.095991,RAF Benson,EU,GB
EGUD,51.690614,-1.316568,RAF Abingdon,EU,GB
EGUL,52.40954,0.561161,RAF Lakenheath,EU,GB
EGUN,52.3619,0.486406,RAF Mildenhall,EU,GB
EGUW,52.127451,0.956189,Wattisham Airfield,EU,GB
EGVA,51.683568,-1.789172,RAF Fairford,EU,GB
EGVL,51.866475,-1.694984,RAF Little Rissington,EU,GB
EGVN,51.75,-1.58362,RAF Brize Norton,EU,GB
EGVO,51.2341,-0.942825,RAF Odiham,EU,GB
EGVP,51.1394,-1.56861,Middle Wallop Airfield,EU,GB
EGWC,52.639999,-2.30558,RAF Cosford,EU,GB
EGWE,52.0182,-0.30385,RAF Henlow,EU,GB
EGWN,51.790699,-0.737972,RAF Halton,EU,GB
EGWU,51.553001,-0.418167,RAF Northolt,EU,GB
EGXC,53.092999,-0.166014,RAF Coningsby,EU,GB
EGXE,54.297191,-1.538944,RAF Leeming,EU,GB
EGXG,53.834747,-1.194678,Leeds East Airport,EU,GB
EGXH,52.342602,0.772939,RAF Honington,EU,GB
EGXT,52.612598,-0.476453,RAF Wittering,EU,GB
EGXW,53.166199,-0.523811,RAF Waddington,EU,GB
EGXY,53.02280044555664,-0.9111109972000122,RAF Syerston,EU,GB
EGXZ,54.204116,-1.380265,RAF Topcliffe,EU,GB
EGYD,53.0303,-0.483242,RAF Cranwell,EU,GB
EGYE,52.960616,-0.559428,RAF Barkston Heath,EU,GB
EGYM,52.648395,0.550692,RAF Marham,EU,GB
EGYP,-51.82279968261719,-58.44720077514648,Mount Pleasant Airport,SA,FK
EGZL,57.103667,-3.891667,Feshiebridge Glider Field,EU,GB
EHAL,53.453612,5.678396,Ameland Airport Ballum,EU,NL
EHAM,52.308601,4.76389,Amsterdam Airport Schiphol,EU,NL
EHBD,51.255299,5.60139,Kempen Airport Budel,EU,NL
EHBK,50.911701,5.77014,Maastricht Aachen Airport,EU,NL
EHDL,52.0606,5.87306,Deelen Air Base,EU,NL
EHDR,53.117933,6.127324,Drachten Airfield,EU,NL
EHEH,51.4500999451,5.37452983856,Eindhoven Airport,EU,NL
EHGG,53.119701,6.57944,Groningen Airport Eelde,EU,NL
EHGR,51.567402,4.93183,Gilze Rijen Air Base,EU,NL
EHHO,52.730801,6.51611,Hoogeveen Airfield,EU,NL
EHHV,52.191898,5.14694,Hilversum Airfield,EU,NL
EHKD,52.923401,4.78062,De Kooy Airfield / Den Helder Naval Air Station,EU,NL
EHLE,52.453188,5.514622,Lelystad Airport,EU,NL
EHLW,53.22859954833984,5.760560035705566,Leeuwarden Air Base,EU,NL
EHMZ,51.512199,3.73111,Midden-Zeeland Airfield,EU,NL
EHOW,53.208775,7.033053,Oostwold Airfield,EU,NL
EHRD,51.956902,4.43722,Rotterdam The Hague Airport,EU,NL
EHSE,51.554901,4.553003,Breda International Airport,EU,NL
EHST,52.9986,7.02278,Stadskanaal Airfield,EU,NL
EHTE,52.242764,6.050004,Teuge Airport,EU,NL
EHTL,52.057201,5.92444,Terlet Glidersite,EU,NL
EHTW,52.275833,6.889167,Twente Airport,EU,NL
EHTX,53.114962,4.830552,Texel International Airport,EU,NL
EHVK,51.657222,5.707778,Volkel Air Base,EU,NL
EHWO,51.4491,4.34203,Woensdrecht Air Base,EU,NL
EIAB,53.59170150756836,-7.645559787750244,Abbeyshrule Aerodrome,EU,IE
EIBA,53.5055556,-6.2377778,Ballyboughal Aerodrome,EU,IE
EIBF,53.16147,-7.26737,Benfield Aerodrome,EU,IE
EIBN,51.6772,-9.487123,Bantry Aerodrome,EU,IE
EIBR,53.07059860229492,-7.898330211639404,Birr Aerodrome,EU,IE
EIBT,54.2228012085,-10.0307998657,Belmullet Aerodrome,EU,IE
EICA,53.23030090332031,-9.467780113220217,Connemara Regional Airport,EU,IE
EICD,53.542749,-7.061153,Craddenstown Airfield,EU,IE
EICK,51.841301,-8.49111,Cork Airport,EU,IE
EICL,53.249656677246094,-7.122745513916016,Clonbullogue Aerodrome,EU,IE
EICM,53.300201,-8.94159,Galway Airport,EU,IE
EICN,52.6665,-8.68183,Coonagh Aerodrome,EU,IE
EIDL,55.0442008972168,-8.340999603271484,Donegal Airport,EU,IE
EIDW,53.428713,-6.262121,Dublin Airport,EU,IE
EIER,52.8125,-8.282222,Erinagh Airfield,EU,IE
EIGN,53.1786,-6.63528,Gowran Grange Aerodrome,EU,IE
EIHH,53.695489,-6.654094,Navan Airfield,EU,IE
EIHN,52.85499954223633,-6.547220230102539,Hacketstown Aerodrome,EU,IE
EIIM,53.1067008972168,-9.653610229492188,Inishmore Aerodrome,EU,IE
EIIR,53.064701,-9.5109,Inisheer Aerodrome,EU,IE
EIKH,53.0635986328125,-6.855279922485352,Kildare Aerodrome,EU,IE
EIKK,52.65079879760742,-7.296110153198242,Kilkenny Airport,EU,IE
EIKN,53.910301,-8.81849,Ireland West Knock Airport,EU,IE
EIKY,52.180901,-9.52378,Kerry Airport,EU,IE
EILT,54.951302,-7.67283,Letterkenny Airfield,EU,IE
EIME,53.301700592,-6.451330184940001,Casement Air Base,EU,IE
EIMH,53.637779,-6.878611,Athboy Airfield,EU,IE
EIMN,53.092999,-9.56806,Inishmaan Aerodrome,EU,IE
EINC,53.071098,-6.04528,Newcastle Aerodrome,EU,IE
EINN,52.702,-8.92482,Shannon Airport,EU,IE
EIRT,52.105598,-8.98333,Rathcoole Aerodrome,EU,IE
EISG,54.280200958252,-8.5992097854614,Sligo Airport,EU,IE
EISP,52.845839,-9.414876,Spanish Point Airfield,EU,IE
EISS,53.56139,-6.092778,Ballyhavil Farm Airfield,EU,IE
EITM,53.5746994019,-6.7386097908,Trim Aerodrome,EU,IE
EIWF,52.187199,-7.08696,Waterford Airport,EU,IE
EIWT,53.351622,-6.490357,Weston Airport,EU,IE
EKAE,54.852798,10.4564,Ærø Airfield,EU,DK
EKAH,56.303331,10.618286,Aarhus Airport,EU,DK
EKAT,56.698347,11.555718,Anholt Airfield,EU,DK
EKBH,56.011109,9.016041,Arnborg Gliding Center,EU,DK
EKBI,55.740335,9.157019,Billund Airport,EU,DK
EKCH,55.617900848389,12.656000137329,Copenhagen Kastrup Airport,EU,DK
EKCR,56.104407,9.392495,Christianshede Airfield,EU,DK
EKEB,55.525902,8.5534,Esbjerg Airport,EU,DK
EKEL,55.756753,10.248697,Endelave Airfield,EU,DK
EKFR,55.898611,12.245,Freerslev,EU,DK
EKFS,55.247766,10.201228,Vøjstrup Glider Field,EU,DK
EKFU,56.824886,8.987213,Fur Airstrip,EU,DK
EKGH,55.941399,12.3822,Grønholt Hillerød Airfield,EU,DK
EKGL,55.8855556,12.2280556,Gørløse Glider Field,EU,DK
EKGO,55.551963,11.196999,Gørlev Airfield,EU,DK
EKGR,56.442501,10.9306,Grenaa Airfield,EU,DK
EKHE,55.984722,12.214444,Annisse flyveplads,EU,DK
EKHG,56.1847,9.04445,Herning Airfield,EU,DK
EKHK,55.733919,11.604706,Holbæk (Ny Hagested) Airfield,EU,DK
EKHM,55.908195,9.446358,Hammer Glider Field,EU,DK
EKHO,56.396868,8.444061,Lindtorp Airfield,EU,DK
EKHV,55.301829,9.524503,Haderslev Airfield,EU,DK
EKKA,56.297139,9.104311,Midtjyllands Airport / Air Base Karup,EU,DK
EKKL,55.700011,11.250095,Kalundborg Airfield,EU,DK
EKKO,55.337094,11.241791,Korsør Airfield,EU,DK
EKKS,55.251511,12.062726,Kongsted Gliderfield,EU,DK
EKLS,57.277199,11.0001,Læsø Airport,EU,DK
EKLV,56.502998,8.31133,Lemvig Airfield,EU,DK
EKMB,54.699447,11.438163,Lolland Falster Maribo Airport,EU,DK
EKMN,54.96545,12.196483,Kostervig Mon Airfield,EU,DK
EKNM,56.824402,8.78667,"Morsø Airfield, Tødsø",EU,DK
EKOD,55.475307,10.327206,Odense Hans Christian Andersen Airport,EU,DK
EKPB,54.8703,9.27901,Kruså-Padborg Airfield,EU,DK
EKRA,55.777572,9.94154,Rårup Airfield,EU,DK
EKRD,56.506599,10.0364,Randers Airfield,EU,DK
EKRK,55.585602,12.1314,Copenhagen Roskilde Airport,EU,DK
EKRN,55.063301,14.7596,Bornholm Airport,EU,DK
EKRS,55.4258,11.8067,Ringsted Airfield,EU,DK
EKSA,57.346699,10.407,Sæby (Ottestrup) Airfield,EU,DK
EKSB,54.96440124511719,9.791729927062988,Sønderborg Airport,EU,DK
EKSD,56.102699,8.51423,Spjald Airfield,EU,DK
EKSL,55.452619,11.643544,Slaglille Airfield,EU,DK
EKSN,57.503502,10.2294,Sindal Airport,EU,DK
EKSP,55.221048,9.26702,Skrydstrup Air Base,EU,DK
EKSS,55.889073,10.613766,Samsø Airfield,EU,DK
EKST,55.016602,10.5633,Sydfyn (Tasinge) Airfield,EU,DK
EKSV,56.550201,9.17298,Skive Airport,EU,DK
EKTD,54.929699,8.84057,Tønder Airfield,EU,DK
EKTS,57.068802,8.70522,Thisted Airport,EU,DK
EKVB,56.409992,9.409277,Viborg Airfield,EU,DK
EKVD,55.436298,9.33092,Kolding Vamdrup Airfield,EU,DK
EKVG,62.063256,-7.275782,Vágar Airport,EU,FO
EKVH,56.846613,9.460602,Vesthimmerland Airfield,EU,DK
EKVJ,55.990101,8.35391,Stauning Vestjylland  Airport,EU,DK
EKYT,57.094763,9.84993,Aalborg Airport,EU,DK
ELLX,49.6233333,6.2044444,Luxembourg-Findel International Airport,EU,LU
ELNT,49.981098,5.91778,Wiltz-Noertrange Airfield,EU,LU
ELUS,49.768155,5.965962,Useldange Glider Field,EU,LU
ENAE,61.257401,11.6689,Æra Airfield,EU,NO
ENAL,62.5625,6.1197,"Ålesund Airport, Vigra",EU,NO
ENAN,69.292503,16.144199,"Andøya Airport, Andenes",EU,NO
ENAS,78.927498,11.8743,"Ny-Ålesund Airport, Hamnerabben",EU,NO
ENAT,69.976097,23.3717,Alta Airport,EU,NO
ENBL,61.391102,5.75694,"Førde Airport, Bringeland",EU,NO
ENBM,60.638098,6.499786,Bømoen Airfield,EU,NO
ENBN,65.461098,12.2175,"Brønnøysund Airport, Brønnøy",EU,NO
ENBO,67.269203,14.3653,Bodø Airport,EU,NO
ENBR,60.2934,5.21814,"Bergen Airport, Flesland",EU,NO
ENBS,70.60025,29.692612,Båtsfjord Airport,EU,NO
ENBV,70.871517,29.034097,Berlevåg Airport,EU,NO
ENCN,58.204201,8.08537,"Kristiansand Airport, Kjevik",EU,NO
ENDI,60.416679,8.51277,Geilo Airport Dagali,EU,NO
ENDO,60.833302,9.91667,Dokka Thomlevold Airfield,EU,NO
ENDU,69.055801,18.5404,Bardufoss Airport,EU,NO
ENEG,60.214672,10.318737,"Hønefoss Airfield, Eggemoen",EU,NO
ENEN,67.967222,14.9925,Engeløy Airfield,EU,NO
ENEV,68.491302490234,16.678100585938,"Harstad/Narvik Airport, Evenes",EU,NO
ENFA,63.7006,8.76057,Flatval Airfield,EU,NO
ENFG,61.015598,9.28806,"Fagernes Airport, Leirin",EU,NO
ENFL,61.583599090576,5.0247201919556,Florø Airport,EU,NO
ENFY,59.202784,8.087625,Fyresdal Airfield,EU,NO
ENGK,58.516701,8.7,"Arendal Airfield, Gullknapp",EU,NO
ENGM,60.193901,11.1004,"Oslo Airport, Gardermoen",EU,NO
ENGN,62.1175,10.1108,Folldal Grimsmoe Airfield,EU,NO
ENGS,64.183586,12.171478,Snåsa Airfield Grønøra,EU,NO
ENHA,60.8181,11.068,"Hamar Lufthavn, Stavsberg",EU,NO
ENHD,59.345299,5.20836,"Haugesund Airport, Karmøy",EU,NO
ENHF,70.679703,23.6686,Hammerfest Airport,EU,NO
ENHK,70.486702,22.1397,Hasvik Airport,EU,NO
ENHL,58.684171,5.584273,Jæren Mikroflyklubb Field,EU,NO
ENHN,60.876399,11.675513,Elverum Starmoen Airfield,EU,NO
ENHS,59.759927,9.919506,Hokksund Airfield,EU,NO
ENHT,65.594704,13.9892,Hattfjelldal Airfield,EU,NO
ENHV,71.009697,25.983601,"Honningsvåg Airport, Valan",EU,NO
ENJA,70.944117,-8.652074,Jan Mayensfield,EU,NO
ENJB,59.299232,10.369844,Jarlsberg Airfield,EU,NO
ENKA,69.040298,23.034,Kautokeino Airfield,EU,NO
ENKB,63.111801,7.82452,"Kristiansund Airport, Kvernberget",EU,NO
ENKJ,59.969089,11.040482,"Lillestrøm Airfield, Kjeller",EU,NO
ENKL,60.791066,9.048672,Gol Airport,EU,NO
ENKR,69.7258,29.8913,"Kirkenes Airport, Høybuktmoen",EU,NO
ENLI,58.099499,6.62605,Lista Airport,EU,NO
ENLK,68.152496337891,13.609399795532,Leknes Airport,EU,NO
ENLU,59.298004,9.132011,Lunde Nome Airfield,EU,NO
ENMH,71.029701,27.8267,Mehamn Airport,EU,NO
ENML,62.744701,7.2625,"Molde Airport, Årø",EU,NO
ENMS,65.783997,13.2149,"Mosjøen Airport, Kjærstad",EU,NO
ENNA,70.068802,24.973499,"Lakselv Airport, Banak",EU,NO
ENNM,64.472198,11.5786,Namsos Airport,EU,NO
ENNO,59.565071,9.213152,Notodden Airport,EU,NO
ENOL,63.69889831542969,9.604000091552734,Ørland Airport,EU,NO
ENOP,62.651323,9.851646,Fagerhaug Airfield,EU,NO
ENOV,62.180000305176,6.0741000175476,"Ørsta-Volda Airport, Hovden",EU,NO
ENRA,66.363899230957,14.301400184631,"Mo i Rana Airport, Røssvoll",EU,NO
ENRG,67.098297,15.4111,Rognan Airfield,EU,NO
ENRI,61.545440673,10.061588287,Ringebu Airfield Frya,EU,NO
ENRK,59.397499,11.3469,Rakkestad Astorp Airfield,EU,NO
ENRM,64.838302612305,11.14610004425,"Rørvik Airport, Ryum",EU,NO
ENRO,62.578399658203,11.342300415039,Røros Airport,EU,NO
ENRS,67.526482,12.101575,Røst Airport,EU,NO
ENRV,60.672199,10.5675,Reinsvoll Airfield,EU,NO
ENRY,59.378817,10.785439,"Moss Airport, Rygge",EU,NO
ENSB,78.246101379395,15.465600013733,"Svalbard Airport, Longyear",EU,NO
ENSD,61.830002,6.10583,"Sandane Airport, Anda",EU,NO
ENSG,61.156101,7.13778,"Sogndal Airport, Haukåsen",EU,NO
ENSH,68.243301,14.6692,"Svolvær Airport, Helle",EU,NO
ENSI,59.706972,10.881665,Ski Airfield,EU,NO
ENSK,68.578827,15.033417,"Stokmarknes Airport, Skagen",EU,NO
ENSN,59.185001,9.56694,Skien Airport,EU,NO
ENSO,59.791901,5.34085,"Stord Airport, Sørstokken",EU,NO
ENSR,69.786797,20.9594,Sørkjosen Airport,EU,NO
ENSS,70.3554,31.044901,"Vardø Airport, Svartnes",EU,NO
ENST,65.956802,12.4689,"Sandnessjøen Airport, Stokka",EU,NO
ENSU,62.656919,8.679457,Vinnu Airfield,EU,NO
ENTC,69.683296,18.9189,"Tromsø Airport, Langnes",EU,NO
ENTO,59.186699,10.2586,"Sandefjord Airport, Torp",EU,NO
ENTS,61.229279,12.266407,Trysil Sæteråsen Airfield,EU,NO
ENTY,62.256901,10.6694,Tynset Airfield,EU,NO
ENUL,60.1922,5.4225,Os Vaksinen Ulven Airfield,EU,NO
ENVA,63.457802,10.924,"Trondheim Airport, Værnes",EU,NO
ENVD,70.0653,29.8447,Vadsø Airport,EU,NO
ENVE,59.031723,7.554903,Valle Airfield Åraksøyne,EU,NO
ENZV,58.876701,5.63778,"Stavanger Airport, Sola",EU,NO
EPAR,49.657501,22.514298,Arłamów Airfield,EU,PL
EPBA,49.805,19.0019,Bielsko-Biała Aleksandrowice Airfield,EU,PL
EPBB,53.669635,21.252737,Babięta,EU,PL
EPBC,52.269199,20.907203,Warsaw Babice Airport,EU,PL
EPBK,53.101398,23.170601,Białystok-Krywlany Airfield,EU,PL
EPBY,53.096802,17.977699,Bydgoszcz Ignacy Jan Paderewski Airport,EU,PL
EPCD,51.082067,23.437014,Depułtycze Królewskie Airfield,EU,PL
EPCE,54.417664,17.773512,Cewice Naval Air Base,EU,PL
EPDA,54.404701,16.3531,Darłówo Naval Air Base,EU,PL
EPDE,51.551399231,21.8936004639,Deblin Military Air Base,EU,PL
EPDK,51.6126,23.0072,Debowa Klada Airfield,EU,PL
EPDS,50.79686,16.11448,Witków Airfield,EU,PL
EPEL,54.1408,19.4233,Elbląg Airfield,EU,PL
EPGD,54.377602,18.4662,Gdańsk Lech Wałęsa Airport,EU,PL
EPGE,53.982531,22.401796,Giże,EU,PL
EPGI,53.524399,18.849199,Grudziądz Lisie Kąty Airfield,EU,PL
EPGL,50.268743,18.672466,Gliwice-Trynek Airfield,EU,PL
EPGM,54.00645,21.81824,Giżycko-Mazury Residence,EU,PL
EPGR,53.608072,20.349692,Łańsk / Gryźliny Airfield,EU,PL
EPGS,51.87549,20.93774,Grójec-Słomczyn Airfield,EU,PL
EPGY,52.836977,21.777644,Grądy Airfield,EU,PL
EPHN,52.908777,23.541338,Narew,EU,PL
EPIN,52.80648,18.280698,Inowrocław Airfield,EU,PL
EPIR,52.8293991089,18.3306007385,Inowroclaw Military Air Base,EU,PL
EPJA,54.710281,18.645281,Jastarnia Airfield,EU,PL
EPJG,50.898899,15.7856,Jelenia Góra Airfield,EU,PL
EPJL,50.008497,22.918897,Laszki Field,EU,PL
EPJS,50.944028,15.766528,Jeżów Sudecki Airfield,EU,PL
EPKA,50.896702,20.731701,Kielce-Masłów Airfield,EU,PL
EPKB,52.319549,18.164322,Kazimierz Biskupi Airfield,EU,PL
EPKD,51.25532,20.47132,Końskie-Komaszyce,EU,PL
EPKE,54.043598,21.432199,Kȩtrzyn-Wilamowo Airfield,EU,PL
EPKI,53.983056,20.877222,Kikity,EU,PL
EPKK,50.077702,19.7848,Kraków John Paul II International Airport,EU,PL
EPKL,50.899319,20.12804,Krasocin Field,EU,PL
EPKM,50.238184,19.033685,Katowice-Muchowiec Airfield,EU,PL
EPKN,50.529202,18.0849,Opole-Kamień Śląski Airfield,EU,PL
EPKP,50.08644,20.200253,Pobiednik Wielki Airfield,EU,PL
EPKR,49.683807,21.740953,Krosno Airfield,EU,PL
EPKS,52.331699,16.9664,Krzesiny Military Air Base,EU,PL
EPKT,50.476015,19.080705,Katowice Wojciech Korfanty International Airport,EU,PL
EPKW,49.94159,19.019566,Bielsko-Biała Kaniów Airfield,EU,PL
EPLB,51.240157,22.713461,Lublin Airport,EU,PL
EPLK,51.551701,19.1791,Łask Air Base,EU,PL
EPLL,51.721901,19.3981,Łódź Władysław Reymont Airport,EU,PL
EPLR,51.221901,22.394699,Lublin Radwiec Airfield,EU,PL
EPLS,51.834999,16.5219,Leszno-Strzyzewice Airfield,EU,PL
EPLU,51.423,16.196199,Lubin Airfield,EU,PL
EPLY,52.004945,19.143792,Leźnica Wielka Air Base,EU,PL
EPMB,54.026598,19.135718,Malbork Królewo Air Base,EU,PL
EPMI,53.3951,16.0828,Miroslawiec Military Air Base,EU,PL
EPML,50.3223,21.462099,Mielec Airfield,EU,PL
EPMM,52.1954994202,21.6558990479,Minsk Mazowiecki Military Air Base,EU,PL
EPMO,52.451099,20.6518,Modlin Airport,EU,PL
EPMR,50.957802,16.7703,Mirosławice Private Airfield,EU,PL
EPMX,52.665208,20.428419,Milewo Airfield,EU,PL
EPMY,52.941164,15.029812,Myślibórz-Giżyn Airfield,EU,PL
EPNA,53.454885,16.48946,Nadarzyce Air Base,EU,PL
EPNL,49.745324,20.623472,Nowy Sącz-Łososina Dolna Airfield,EU,PL
EPNM,51.628335,20.541228,Nowe Miasto nad Pilicą Airfield,EU,PL
EPNT,49.462797,20.050304,Nowy Targ Airfield,EU,PL
EPOD,53.772901,20.413087,Olsztyn-Dajtki Airfield,EU,PL
EPOK,54.5797,18.5172,Oksywie Air Base / Gdynia-Kosakowo Airfield,EU,PL
EPOM,51.700767,17.84663,Ostrów Wielkopolski Michałków Airfield,EU,PL
EPOP,50.633301,17.7817,Opole-Polska Nowa Wieś Airfield,EU,PL
EPPC,50.517439,20.516758,Pińczów Airfield,EU,PL
EPPI,53.170095,16.711092,Piła Airfield,EU,PL
EPPK,52.434582,17.044036,Poznań-Kobylnica Airfield,EU,PL
EPPL,52.562225,19.720322,Płock Airfield,EU,PL
EPPO,52.421598,16.823359,Poznań-Ławica Airport,EU,PL
EPPR,54.248001,18.6716,Pruszcz Gdański Air Base,EU,PL
EPPT,51.383099,19.688299,Piotrków Trybunalski-Bujny Airfield,EU,PL
EPPW,52.380087,17.853155,Powidz Military Air Base,EU,PL
EPRA,51.38937,21.214742,Warsaw Radom Airport,EU,PL
EPRD,54.134375,21.598754,Mazury Air Camp Airfield,EU,PL
EPRG,50.070801,18.6283,Rybnik-Gotartowice Glider Field,EU,PL
EPRJ,50.104169,22.047029,Rzeszów Sports Airfield,EU,PL
EPRP,51.478901,21.110001,Radom-Piastrów Airfield,EU,PL
EPRS,52.242789,20.126579,Sochaczew-Rybno,EU,PL
EPRU,50.884716,19.201842,Częstochowa-Rudniki Airport,EU,PL
EPRZ,50.109791,22.024155,Rzeszów-Jasionka Airport,EU,PL
EPSC,53.584702,14.9022,Solidarity Szczecin–Goleniów Airport,EU,PL
EPSD,53.390659,14.632774,Szczecin-Dąbie Airfield,EU,PL
EPSJ,51.951142,21.35253,Sobienie Field,EU,PL
EPSK,54.410036,17.090572,Słupsk-Krȩpa Airfield,EU,PL
EPSN,53.790599823,15.8262996674,Swidwin Military Air Base,EU,PL
EPSS,50.8171823,16.5818641,Świdnica - Krzczonów Airstrip,EU,PL
EPST,50.62638,21.998963,Stalowa Wola-Turbia Airfield,EU,PL
EPSU,54.0728,22.8992,Suwałki Airfield,EU,PL
EPSW,51.231899,22.6903,Świdnik Airfield,EU,PL
EPSY,53.481899,20.9377,Olsztyn-Mazury Airport,EU,PL
EPTM,51.5844,20.097799,Tomaszów Mazowiecki Military Air Base,EU,PL
EPTO,53.029202,18.5459,Toruń Airfield,EU,PL
EPVA,52.4359,21.33,Roszczep Airstrip,EU,PL
EPWA,52.165699,20.9671,Warsaw Chopin Airport,EU,PL
EPWK,52.584702,19.0156,Włocławek-Kruszyn Airfield,EU,PL
EPWR,51.103719,16.882096,Copernicus Wrocław Airport,EU,PL
EPWS,51.2061,16.9986,Wrocław-Szymanów Airfield,EU,PL
EPZA,50.701698,23.204399,Zamość-Mokre Airfield,EU,PL
EPZB,52.362056,16.638722,Zborowo Airfield,EU,PL
EPZG,52.1385,15.7986,Zielona Góra-Babimost Airport,EU,PL
EPZI,53.1885,18.9617,Zieleń Airfield,EU,PL
EPZK,51.360179,18.822057,Konopnica Airfield,EU,PL
EPZL,52.63547,20.07036,Zdziar-Lopatki Airfield,EU,PL
EPZP,51.978901,15.4639,Zielona Góra-Przylep Airfield,EU,PL
EPZR,49.771099,19.2181,Żar Airfield,EU,PL
ESCF,58.402302,15.5257,Malmen Air Base,EU,SE
ESCM,59.897301,17.5886,Ärna Air Base,EU,SE
ESDF,56.266701,15.265,Ronneby Airport,EU,SE
ESFA,56.134407,13.875647,Hässleholm Bokeberg Airfield,EU,SE
ESFR,58.4981,13.0532,Råda Air Base,EU,SE
ESFS,57.0681,16.8613,Sandvik Airfield,EU,SE
ESGA,58.1772,11.9735,Backamo Airfield,EU,SE
ESGC,58.134499,13.6026,Ålleberg Airfield,EU,SE
ESGD,58.191799,13.9957,Bämmelshed Airfield,EU,SE
ESGE,57.695935,12.845002,Borås Airfield,EU,SE
ESGF,56.968598,12.387439,Morup Airfield,EU,SE
ESGG,57.6628,12.2798,Göteborg Landvetter Airport,EU,SE
ESGH,58.029301,13.1082,Herrljunga Airfield,EU,SE
ESGI,57.948888,12.575827,Alingsås Airfield,EU,SE
ESGJ,57.757598876953125,14.068699836730955,Jönköping Airport,EU,SE
ESGK,58.1698,13.5878,Falköping Airfield,EU,SE
ESGL,58.4655,13.1744,Lidköping-Hovby Airport,EU,SE
ESGM,57.445301,12.649,Öresten Airfield,EU,SE
ESGN,58.578602,13.6106,Brännebrona Airfield,EU,SE
ESGO,58.039398,12.7889,Vårgårda Airfield,EU,SE
ESGP,57.7747,11.8704,Säve Airport,EU,SE
ESGR,58.456402,13.9727,Skövde Airport,EU,SE
ESGS,59.0168,11.3437,Näsinge Airfield,EU,SE
ESGT,58.31809997558594,12.345000267028809,Trollhättan-Vänersborg Airport,EU,SE
ESGU,58.367599,11.7754,Rörkärr Airfield,EU,SE
ESGV,57.124599,12.2283,Varberg Getterön airfield,EU,SE
ESGY,59.085512,12.949705,Säffle Airfield,EU,SE
ESIA,58.513802,14.5071,Karlsborg Air Base,EU,SE
ESIB,58.426399,12.7144,Såtenäs Air Base,EU,SE
ESKA,60.132801,18.1049,Lunda Airfield,EU,SE
ESKC,59.922699,17.5368,Uppsala-Sundbro Airfield,EU,SE
ESKD,60.556099,14.3771,Dala Järna Airfield,EU,SE
ESKG,60.286999,17.4217,Gryttjom Airfield,EU,SE
ESKH,60.1548,13.5286,Ekshärad Airfield,EU,SE
ESKK,59.345901,14.4959,Karlskoga Airport,EU,SE
ESKM,60.957901,14.5114,Mora Airport,EU,SE
ESKN,58.788601,16.912201,Stockholm Skavsta Airport,EU,SE
ESKO,59.798801,13.4907,Munkfors Airfield,EU,SE
ESKS,61.158393,12.842503,Scandinavian Mountains Airport,EU,SE
ESKT,60.350351,17.418652,Tierp Airfield,EU,SE
ESKU,59.860199,13.1129,Sunne Airfield,EU,SE
ESKV,59.6759,12.6394,Arvika Airfield,EU,SE
ESMB,56.862999,16.656099,Borglanda Airfield,EU,SE
ESMC,57.670601,14.943,Ränneslätt Airfield,EU,SE
ESME,55.848923,13.329935,Eslöv Airfield,EU,SE
ESMF,56.387901,13.4706,Fagerhult Airfield,EU,SE
ESMG,56.950298,13.9217,Feringe Airfield,EU,SE
ESMH,56.184799,12.5761,Höganäs Airfield,EU,SE
ESMI,55.598202,13.6747,Sjöbo Sövde Airfield,EU,SE
ESMJ,55.994701,13.0509,Kågeröd Simmelsberga Airfield,EU,SE
ESMK,55.9217,14.0855,Kristianstad Airport,EU,SE
ESML,55.945999,12.87,Landskrona Enoch Thulins Airfield,EU,SE
ESMO,57.350498,16.497999,Oskarshamn Airport,EU,SE
ESMP,57.264198,13.5994,Anderstorp Airfield,EU,SE
ESMQ,56.685501,16.2876,Kalmar Airport,EU,SE
ESMS,55.535564,13.376327,Malmö Sturup Airport,EU,SE
ESMT,56.69110107421875,12.820199966430664,Halmstad Airport,EU,SE
ESMU,56.572016,14.168415,Möckeln Airfield,EU,SE
ESMV,57.292198,14.1372,Hagshult Air Base,EU,SE
ESMX,56.92910003662109,14.727999687194824,Växjö Kronoberg Airport,EU,SE
ESMY,57.168598,13.4402,Smålandsstenar Smålanda Airfield,EU,SE
ESMZ,57.328236,17.050524,Ölanda Airfield,EU,SE
ESNA,63.7383,15.4583,Hallviken Airfield,EU,SE
ESNB,63.1712,16.985201,Sollefteå/Långsele Airfield,EU,SE
ESNC,62.410631,13.745699,Hedlanda Airfield,EU,SE
ESND,62.047798,14.4229,Sveg Airport,EU,SE
ESNE,66.529093,22.356319,Överkalix Airfield,EU,SE
ESNG,67.13240051269531,20.814599990844727,Gällivare Airport,EU,SE
ESNJ,66.496201,20.1472,Jokkmokk Airfield,EU,SE
ESNK,63.048599,17.7689,Kramfors-Sollefteå Höga Kusten Airport,EU,SE
ESNL,64.548302,18.7162,Lycksele Airport,EU,SE
ESNM,63.128601,14.8028,Optand Airfield,EU,SE
ESNN,62.528099060058594,17.443899154663086,Sundsvall-Härnösand Airport,EU,SE
ESNO,63.40829849243164,18.989999771118164,Örnsköldsvik Airport,EU,SE
ESNP,65.3983,21.260799,Piteå Airfield,EU,SE
ESNQ,67.821998596191,20.336799621582,Kiruna Airport,EU,SE
ESNR,61.189999,14.7126,Orsa Airfield,EU,SE
ESNS,64.62480163574219,21.07690048217773,Skellefteå Airport,EU,SE
ESNU,63.791801452637,20.282800674438,Umeå Airport,EU,SE
ESNV,64.579102,16.833599,Vilhelmina South Lapland Airport,EU,SE
ESNX,65.59030151367188,19.28190040588379,Arvidsjaur Airport,EU,SE
ESNY,61.261501,17.0991,Söderhamn Airport,EU,SE
ESNZ,63.194135,14.500322,Åre Östersund Airport,EU,SE
ESOE,59.22370147705078,15.038000106811523,Örebro Airport,EU,SE
ESOH,60.0201,13.5789,Hagfors Airport,EU,SE
ESOK,59.444698,13.3374,Karlstad Airport,EU,SE
ESOL,60.586597,16.586566,Lemstanas Airfield,EU,SE
ESOW,59.58940124511719,16.63360023498535,Stockholm Västerås Airport,EU,SE
ESPA,65.5438,22.122,Luleå Airport,EU,SE
ESPE,65.875298,20.1499,Vidsel Air Base,EU,SE
ESQO,59.3866,15.9241,Arboga Airfield,EU,SE
ESSA,59.64849,17.928829,Stockholm-Arlanda Airport,EU,SE
ESSB,59.354400634765625,17.941699981689453,Stockholm-Bromma Airport,EU,SE
ESSC,59.3839,16.4419,Ekeby Airfield,EU,SE
ESSD,60.422001,15.5152,Dala Airport,EU,SE
ESSE,59.3451,17.740499,Skå-Edeby Airfield,EU,SE
ESSF,57.525799,15.8233,Hultsfred Airport,EU,SE
ESSG,60.088299,15.0964,Ludvika Airfield,EU,SE
ESSH,58.978699,14.6662,Laxå Airfield,EU,SE
ESSI,58.0984,14.4026,Visingsö Airfield,EU,SE
ESSK,60.5933,16.951401,Gävle Sandviken Airport,EU,SE
ESSL,58.4062004089,15.6805000305,Linköping City Airport,EU,SE
ESSM,59.608398,13.9123,Brattforshede Airfield,EU,SE
ESSN,59.732592,18.695215,Norrtälje Airfield,EU,SE
ESSP,58.58629989624024,16.250600814819336,Norrköping Airport,EU,SE
ESST,60.1576,12.9913,Torsby Airport,EU,SE
ESSU,59.351101,16.708401,Eskilstuna Airport,EU,SE
ESSV,57.662799835205,18.346200942993,Visby Airport,EU,SE
ESSW,57.779999,16.5236,Västervik Airport,EU,SE
ESSX,59.575802,16.503201,Johannisberg Airfield,EU,SE
ESSZ,59.101101,17.2111,Vängsö Airfield,EU,SE
ESTA,56.29610061645508,12.847100257873535,Ängelholm-Helsingborg Airport,EU,SE
ESTF,58.630009,11.314459,Fjällbacka Anra Airfield,EU,SE
ESTL,56.082802,13.2125,Ljungbyhed Airfield,EU,SE
ESTT,55.391202,13.022103,Vellinge Airfield,EU,SE
ESUB,61.512501,16.372499,Arbrå Airfield,EU,SE
ESUD,64.960899,17.6966,Storuman Airport,EU,SE
ESUE,61.869701,12.6894,Idre Airport,EU,SE
ESUG,65.305298,17.9755,Gargnäs Airfield,EU,SE
ESUH,62.632469,17.981701,Myran Airfield,EU,SE
ESUI,63.391806,18.319471,Mellansel Airfield,EU,SE
ESUJ,62.5653,15.8347,Tälje Airfield,EU,SE
ESUK,67.764801,20.2572,Kalixfors Airfield,EU,SE
ESUL,61.817001,16.004299,Ljusdal Airfield,EU,SE
ESUM,61.291199,16.8463,Mohed Airfield,EU,SE
ESUO,63.041698,14.0014,Graftavallen Airfield,EU,SE
ESUP,67.244569,23.074894,Pajala Airport,EU,SE
ESUR,63.490299,16.4834,Ramsele Airfield,EU,SE
ESUS,64.155938,17.285045,Åsele Airfield,EU,SE
ESUT,65.806099,15.0828,Hemavan Airport,EU,SE
ESUV,65.645699,21.0611,Älvsbyn Airfield,EU,SE
ESUY,61.386732,15.833166,Edsby Airfield,EU,SE
ESVA,60.180401,16.122801,Avesta Airfield,EU,SE
ESVB,57.849701,19.035,Bunge Airfield,EU,SE
ESVG,60.551701,15.0816,Gagnef Airfiekld,EU,SE
ESVH,59.867401,14.4239,Hällefors Airfield,EU,SE
ESVK,59.022301,16.220301,Katrineholm Airfield,EU,SE
ESVM,60.658798,13.7266,Skinnlanda Airfield,EU,SE
ESVQ,59.5275,15.9697,Köping/Gålby flygfält,EU,SE
ESVS,60.785099,14.8272,Siljansnäs Air Park,EU,SE
ETAD,49.976507,6.698413,Spangdahlem Air Base,EU,DE
ETAR,49.436901,7.60028,Ramstein Air Base,EU,DE
ETHA,47.835499,10.8712,Altenstadt Army Airfield,EU,DE
ETHB,52.2785,9.08217,Bückeburg Air Base,EU,DE
ETHC,52.591202,10.0221,Celle Army Airfield,EU,DE
ETHE,52.291199,7.387,Rheine-Bentlage Airfield,EU,DE
ETHF,51.1146,9.286,Fritzlar Army Airfield,EU,DE
ETHL,48.220299,9.91002,Laupheim Air Base,EU,DE
ETHM,50.366001,7.31533,Mendig Airfield,EU,DE
ETHN,49.39162,9.956747,Niederstetten Army Air Base,EU,DE
ETHR,49.217499,11.1002,Roth Airfield,EU,DE
ETHS,52.919399,10.185827,Faßberg Air Base,EU,DE
ETIC,49.6987,11.9402,Grafenwöhr Army Air Field,EU,DE
ETIH,49.216541,11.836064,Hohenfels Army Airfield,EU,DE
ETIN,49.744293,10.207313,Kitzingen Airfield,EU,DE
ETMN,53.767689,8.659201,Sea-Airport Cuxhaven/Nordholz / Nordholz Naval Airbase,EU,DE
ETND,52.585556,8.342222,Diepholz Air Base,EU,DE
ETNG,50.9608,6.04242,Geilenkirchen Air Base,EU,DE
ETNH,54.312199,9.53817,Hohn Air Base,EU,DE
ETNL,53.918201,12.2783,Rostock-Laage Airport,EU,DE
ETNN,50.8312,6.65817,Nörvenich Air Base,EU,DE
ETNS,54.459301,9.51633,Schleswig Air Base,EU,DE
ETNT,53.547798,7.66733,Wittmundhafen Air Base,EU,DE
ETNW,52.457298,9.42717,Wunstorf Air Base,EU,DE
ETOI,49.634077,11.767495,Vilseck Army Air Field,EU,DE
ETOR,49.563599,8.46339,Coleman Army Air Field,EU,DE
ETOU,50.049800872802734,8.325400352478027,Wiesbaden Army Airfield,EU,DE
ETSB,50.173801,7.06333,Büchel Air Base,EU,DE
ETSH,51.767799,13.1677,Holzdorf Air Base,EU,DE
ETSI,48.7156982421875,11.534000396728516,Ingolstadt Manching Airport,EU,DE
ETSL,48.185504,10.8612,Lechfeld Air Base,EU,DE
ETSN,48.710999,11.2115,Neuburg Air Base,EU,DE
ETWM,52.723202,7.32633,Meppen Air Base,EU,DE
EVAD,57.098598,24.2658,Ādaži Airfield,EU,LV
EVAH,57.4849,24.672126,Langaci-Limbaži Airfield,EU,LV
EVGA,56.778301,24.853901,Lielvarde Air Base,EU,LV
EVIA,56.738062,21.359786,Cīrava Airfield,EU,LV
EVKA,56.534698,25.8925,Jēkabpils Air Base,EU,LV
EVLA,56.517502,21.096901,Liepāja International Airport,EU,LV
EVPA,56.814999,24.5278,Ikshkile Airfield,EU,LV
EVRA,56.923599,23.9711,Riga International Airport,EU,LV
EVRS,56.9911003113,24.0750007629,Spilve Aerodrome,EU,LV
EVTA,56.9422,23.2239,Jūrmala Airport,EU,LV
EVTE,57.254398,22.566218,Talsi Airfield,EU,LV
EVVA,57.3578,21.544201,Ventspils International Airport,EU,LV
EYAL,54.412525,24.059929,Alytus Airfield,EU,LT
EYBI,56.1758,24.7603,Biržai Airfield,EU,LT
EYDR,54.015301,23.9431,Druskininkai Airfield,EU,LT
EYIG,55.244167,26.172222,Ignalina,EU,LT
EYJB,55.118049621,22.7648735,Jurbarkas Aerodromas,EU,LT
EYKA,54.96390151977539,24.084800720214844,Kaunas International Airport,EU,LT
EYKD,55.31169891357422,23.95639991760254,Kėdainiai Air Base,EU,LT
EYKL,55.712021,21.242892,Klaipėda Airfield,EU,LT
EYKS,54.879799,23.8815,S. Darius and S. Girėnas Airfield,EU,LT
EYKT,55.9203,21.5672,Kartena Airfield,EU,LT
EYLN,55.0214,22.9739,Valenčiūnai Airfield,EU,LT
EYMA,56.230598,22.259399,Tirkšliai Airfield,EU,LT
EYMM,54.663101,23.453899,Sasnava Airfield,EU,LT
EYMO,55.112801,25.336399,Molėtai Airfield,EU,LT
EYNA,56.242199,22.733101,Akmenė Airfield,EU,LT
EYND,55.327778,21.045834,Nida Airfield,EU,LT
EYPA,55.97320175170898,21.093900680541992,Palanga International Airport,EU,LT
EYPI,55.827499,24.358299,Panevėžys Istra Airfield,EU,LT
EYPN,55.709512,24.345188,Panevėžys Airfield,EU,LT
EYPP,55.729400634765625,24.46080017089844,Panevėžys Air Base,EU,LT
EYPR,54.649399,24.061899,Pociūnai Airfield,EU,LT
EYRD,54.495602,24.717501,Rūdiškės Airfield,EU,LT
EYRK,55.971924,25.604239,Rokiškio aerodromas,EU,LT
EYRO,55.610802,24.2208,Rojūnai Airfield,EU,LT
EYSA,55.89390182495117,23.395000457763672,Šiauliai International Airport,EU,LT
EYSB,56.070599,23.5581,Barysiai Airfield,EU,LT
EYSE,55.746399,23.804701,Šeduva Airfield,EU,LT
EYSI,55.336899,21.5306,Šilute Air Base,EU,LT
EYTL,55.986401,22.2878,Telšiai Airfield,EU,LT
EYUT,55.490002,25.7169,Utena Airfield,EU,LT
EYVI,54.634102,25.285801,Vilnius International Airport,EU,LT
EYVK,54.668301,25.5158,Kyviškes Airfield,EU,LT
EYVP,54.484848,24.987373,Paluknys Airfield,EU,LT
EYZA,55.752499,26.256901,Zarasai Airfield,EU,LT
KAAA,40.158699,-89.334999,Logan County Airport,NA,US
KAAF,29.727501,-85.027496,Apalachicola Regional Airport,NA,US
KAAO,37.74760056,-97.22109985,Colonel James Jabara Airport,NA,US
KAAS,37.358254,-85.309434,Taylor County Airport,NA,US
KAAT,41.482736,-120.565671,Alturas Municipal Airport,NA,US
KABE,40.651773,-75.442797,Lehigh Valley International Airport,NA,US
KABI,32.4113006592,-99.6819000244,Abilene Regional Airport,NA,US
KABQ,35.039976,-106.608925,Albuquerque International Sunport,NA,US
KABR,45.449100494384766,-98.42179870605467,Aberdeen Regional Airport,NA,US
KABY,31.532946,-84.196215,Southwest Georgia Regional Airport,NA,US
